City_ID,City,Lat,Lng,Max Temp,Humidity,Cloudiness,Wind Speed,Country,Date
0,qaqortoq,60.7167,-46.0333,6.26,83,10,1.11,GL,1691632182
1,bilibino,68.0546,166.4372,16.92,40,95,3.0,RU,1691632207
2,lihue,21.9789,-159.3672,31.58,67,75,9.77,US,1691632172
3,waitangi,-43.9535,-176.5597,11.01,76,5,2.68,NZ,1691632207
4,isafjordur,66.0755,-23.124,7.09,81,48,3.27,IS,1691632207
5,hamilton,39.1834,-84.5333,23.47,88,75,4.12,US,1691631875
6,port mathurin,-19.6833,63.4167,22.3,74,7,5.93,MU,1691631897
7,papatowai,-46.5619,169.4708,5.66,73,40,3.53,NZ,1691632189
8,anadyr,64.75,177.4833,13.28,66,75,5.0,RU,1691632208
9,adamstown,-25.066,-130.1015,19.28,58,95,9.49,PN,1691632208
10,el nido,11.1858,119.3956,28.8,78,53,6.27,PH,1691632208
11,badger,64.8,-147.5333,22.51,73,75,4.63,US,1691632150
12,boende,-0.2167,20.8667,21.94,95,93,1.22,CD,1691632209
13,talanga,14.4,-87.0833,27.3,65,97,1.52,HN,1691632209
14,west island,-12.1568,96.8225,25.99,78,75,6.17,CC,1691632142
15,lebu,-37.6167,-73.65,11.46,88,56,5.85,CL,1691631982
16,harbatpur,30.45,77.7333,26.81,86,92,0.61,IN,1691632210
17,kuta,-8.7233,115.1723,23.97,88,40,1.54,ID,1691632210
18,avarua,-21.2078,-159.775,25.03,65,75,7.72,CK,1691632210
19,ribeira grande,38.5167,-28.7,21.54,87,100,2.24,PT,1691632175
20,margaret river,-33.95,115.0667,11.08,83,100,1.48,AU,1691632188
21,edinburgh of the seven seas,-37.0676,-12.3116,10.71,53,69,11.07,SH,1691632211
22,atafu village,-8.5421,-172.5159,28.02,79,36,6.49,TK,1691632211
23,prado,-17.3411,-39.2208,21.6,75,1,3.01,BR,1691632205
24,saint-pierre,-21.3393,55.4781,20.32,64,40,4.12,RE,1691632211
25,ridgecrest,35.6225,-117.6709,36.92,23,75,7.15,US,1691632212
26,xuanzhou,30.9525,118.7553,29.87,69,74,1.98,CN,1691632212
27,port-aux-francais,-49.35,70.2167,3.38,84,100,10.57,TF,1691632143
28,grand baie,-20.0182,57.5802,21.92,69,0,1.79,MU,1691632212
29,fernie,49.5,-115.0687,19.05,92,85,1.86,CA,1691632212
30,aral,40.5156,81.2636,29.02,26,0,3.15,CN,1691632213
31,sisimiut,66.9395,-53.6735,4.78,90,100,3.6,GL,1691632213
32,port elizabeth,-33.918,25.5701,14.16,88,0,2.57,ZA,1691631996
33,carnarvon,-24.8667,113.6333,22.65,56,2,1.95,AU,1691632174
34,puerto natales,-51.7236,-72.4875,2.09,94,77,1.52,CL,1691632141
35,grytviken,-54.2811,-36.5092,-4.95,95,93,1.87,GS,1691632214
36,fale old settlement,-9.3852,-171.2468,28.02,79,25,7.03,TK,1691632181
37,ketchikan,55.3422,-131.6461,15.26,94,100,6.17,US,1691632214
38,sitka,57.0531,-135.33,15.94,82,100,5.14,US,1691632090
39,lorengau,-2.0226,147.2712,28.49,75,100,7.27,PG,1691632215
40,paredon,16.0333,-93.8667,28.04,78,60,1.91,MX,1691632215
41,abaete,-19.16,-45.4458,19.29,66,0,1.84,BR,1691632217
42,saipan,15.1355,145.701,29.39,100,0,4.12,MP,1691632140
43,bethel,41.3712,-73.414,25.17,71,0,2.57,US,1691632217
44,albany,42.6001,-73.9662,20.44,80,1,2.21,US,1691632217
45,al muwayh,22.4333,41.7583,27.4,30,75,3.0,SA,1691632218
46,kitimat,54.0524,-128.6534,17.17,72,100,3.13,CA,1691632218
47,port blair,11.6667,92.75,29.02,84,40,3.6,IN,1691632218
48,port-cartier,50.0334,-66.8654,14.3,96,100,5.83,CA,1691632218
49,san felipe,10.3399,-68.7425,24.18,89,12,1.67,VE,1691632218
50,thompson,55.7435,-97.8558,20.09,45,20,1.54,CA,1691632219
51,dudinka,69.4058,86.1778,13.68,63,100,9.5,RU,1691632219
52,cadale,2.7603,46.3222,24.35,86,43,7.24,SO,1691632219
53,shihezi,44.3,86.0333,27.44,37,0,3.0,CN,1691632219
54,kyren,51.6828,102.1408,15.45,95,100,0.42,RU,1691632220
55,viet tri,21.3019,105.4308,29.97,86,100,2.66,VN,1691632049
56,susuman,62.7833,148.1667,14.32,49,6,1.11,RU,1691632197
57,gogrial,8.5332,28.1004,21.46,95,84,1.42,SS,1691632220
58,durban,-29.8579,31.0292,11.51,79,37,1.9,ZA,1691632220
59,wailua homesteads,22.0669,-159.378,31.24,74,75,9.77,US,1691632221
60,tolanaro,-25.0319,46.9987,19.04,94,40,2.06,MG,1691632221
61,jamestown,42.097,-79.2353,20.8,68,0,2.06,US,1691632028
62,utrik,11.2278,169.8474,28.3,71,64,5.1,MH,1691632183
63,dryden,49.7833,-92.7503,14.16,77,75,3.09,CA,1691632221
64,iqaluit,63.7506,-68.5145,5.85,100,100,3.09,CA,1691632222
65,borogontsy,62.6683,131.1683,22.93,34,61,4.05,RU,1691632222
66,port lincoln,-34.7333,135.8667,14.52,56,32,3.86,AU,1691632222
67,bredasdorp,-34.5322,20.0403,9.88,89,1,1.76,ZA,1691632174
68,muscat,23.6139,58.5922,30.01,65,83,1.02,OM,1691631926
69,taulaga,-11.0553,-171.0883,27.97,79,76,6.77,AS,1691632104
70,blackmans bay,-43.0167,147.3167,14.07,76,99,2.89,AU,1691632223
71,punta arenas,-53.15,-70.9167,3.95,93,100,3.56,CL,1691632196
72,la ronge,55.1001,-105.2842,20.14,42,75,6.17,CA,1691632223
73,ulaangom,49.9811,92.0667,19.43,53,10,0.94,MN,1691632223
74,east london,-33.0153,27.9116,16.33,81,6,7.54,ZA,1691632117
75,sao joao da barra,-21.6403,-41.0511,21.4,85,93,4.99,BR,1691632224
76,longyearbyen,78.2186,15.6401,10.91,54,0,4.12,SJ,1691632224
77,kapuskasing,49.4169,-82.4331,19.05,72,75,1.54,CA,1691632224
78,al kharj,24.155,47.3346,31.32,10,0,3.15,SA,1691632225
79,ushuaia,-54.8,-68.3,4.81,75,40,1.03,AR,1691632148
80,daru,-9.0763,143.2092,24.49,83,100,6.86,PG,1691632225
81,palikir - national government center,6.9248,158.1611,30.47,79,100,2.06,FM,1691632207
82,hilo,19.7297,-155.09,29.04,75,75,3.6,US,1691632225
83,labuan bajo,-8.4964,119.8877,27.76,51,26,1.63,ID,1691632226
84,al hudaydah,14.7978,42.9545,30.23,68,80,2.66,YE,1691632226
85,hami,42.8,93.45,31.89,20,19,5.6,CN,1691632195
86,bokoro,12.3807,17.0568,22.8,91,100,2.28,TD,1691632226
87,malmberget,67.1753,20.6549,5.31,93,40,2.57,SE,1691632227
88,timimoun,29.2639,0.231,32.21,13,0,4.12,DZ,1691632227
89,cassilandia,-19.1133,-51.7342,23.15,28,0,1.52,BR,1691632227
90,polyarnyy,69.1989,33.4478,17.09,78,0,3.57,RU,1691632227
91,ust-nera,64.5667,143.2,20.73,45,6,1.5,RU,1691632228
92,kudat,6.8837,116.8477,30.96,70,20,3.6,MY,1691632228
93,invercargill,-46.4,168.35,6.68,74,22,2.24,NZ,1691632228
94,puerto ayora,-0.7393,-90.3518,24.19,91,37,2.68,EC,1691632228
95,fortuna,40.5982,-124.1573,20.52,83,75,5.14,US,1691632228
96,la passe,45.5549,-0.8967,23.13,61,21,2.57,FR,1691632229
97,hawaiian paradise park,19.5933,-154.9731,27.73,74,75,3.6,US,1691632191
98,gilgit,35.9221,74.3087,28.22,43,0,1.35,PK,1691632229
99,talnakh,69.4865,88.3972,13.45,56,100,2.11,RU,1691632158
100,petropavlovsk-kamchatsky,53.0452,158.6483,21.33,53,40,2.0,RU,1691632229
101,awjilah,29.1081,21.2869,25.02,52,0,5.51,LY,1691632230
102,pandan,14.0453,124.1694,30.96,64,69,2.87,PH,1691632230
103,constantia,44.1833,28.65,18.38,71,65,6.57,RO,1691632230
104,smithers,54.7804,-127.1743,19.18,42,75,4.12,CA,1691632230
105,le muy,43.4738,6.5645,19.48,73,0,0.0,FR,1691632231
106,quellon,-43.1167,-73.6167,11.14,87,75,6.17,CL,1691632231
107,vredendal,-31.6683,18.5012,16.39,44,0,3.6,ZA,1691632231
108,vorgashor,67.5833,63.95,11.23,71,76,4.91,RU,1691632231
109,maxixe,-23.8597,35.3472,17.54,78,0,3.58,MZ,1691632232
110,yeed,4.55,43.0333,23.58,63,87,8.12,SO,1691632232
111,solleftea,63.1667,17.2667,12.92,96,41,1.29,SE,1691632232
112,kalundborg,55.6795,11.0886,13.86,75,9,10.28,DK,1691632232
113,thatta,24.7475,67.9235,27.95,77,100,8.88,PK,1691632233
114,illizi,26.4833,8.4667,26.89,15,0,3.63,DZ,1691632172
115,nuku'alofa,-21.1333,-175.2,24.19,83,75,3.6,TO,1691632233
116,hithadhoo,-0.6,73.0833,27.1,75,77,2.35,MV,1691632233
117,freeport,40.6576,-73.5832,27.21,53,0,5.66,US,1691632066
118,choyr,46.3611,108.3611,19.42,60,100,4.62,MN,1691632234
119,olonkinbyen,70.9221,-8.7187,6.58,98,100,3.64,SJ,1691632145
120,shortandy,51.7006,70.9994,20.69,45,100,3.69,KZ,1691632234
121,wanxian,30.8039,108.3897,31.77,72,0,2.12,CN,1691632234
122,nadym,65.5333,72.5167,8.7,75,100,10.54,RU,1691632234
123,ilulissat,69.2167,-51.1,5.01,100,100,3.09,GL,1691632149
124,aasiaat,68.7098,-52.8699,3.13,90,90,4.44,GL,1691632235
125,namdrik,5.5994,168.1028,28.39,70,100,2.71,MH,1691632235
126,ola,59.5833,151.2833,21.19,54,5,2.26,RU,1691632198
127,keflavik,64.0049,-22.5624,11.95,82,0,3.09,IS,1691632128
128,ghadamis,30.1337,9.5007,28.32,28,0,4.58,LY,1691632236
129,labuan,5.2767,115.2417,29.2,79,20,1.03,MY,1691632236
130,rio grande,-32.035,-52.0986,15.53,94,100,7.84,BR,1691632199
131,tura,25.5198,90.2201,25.2,94,100,1.0,IN,1691632236
132,quartu sant'elena,39.2419,9.1839,22.24,80,0,3.09,IT,1691632236
133,uturoa,-16.7333,-151.4333,24.94,71,81,8.02,PF,1691632237
134,salinopolis,-0.6136,-47.3561,25.87,85,49,5.31,BR,1691632237
135,bonthe,7.5264,-12.505,24.47,93,100,6.18,SL,1691632237
136,happy valley-goose bay,53.3168,-60.3315,16.17,82,100,2.06,CA,1691632237
137,san antonio de pale,-1.4014,5.6325,23.62,79,96,5.38,GQ,1691632237
138,butembo,0.15,29.2833,13.91,91,8,0.94,CD,1691632238
139,thunder bay,48.4001,-89.3168,18.99,59,75,5.14,CA,1691632214
140,alice springs,-23.7,133.8833,24.75,19,0,3.6,AU,1691632141
141,vadso,70.0744,29.7487,18.49,88,9,2.57,NO,1691632238
142,holualoa,19.6228,-155.9522,28.91,73,40,6.17,US,1691632159
143,flying fish cove,-10.4217,105.6791,25.82,73,40,6.17,CX,1691632239
144,stanley,54.868,-1.6985,16.55,91,20,1.03,GB,1691632239
145,bubaque,11.2833,-15.8333,26.61,83,100,2.63,GW,1691632053
146,gebeit,21.0667,36.3167,29.04,21,0,0.33,SD,1691632240
147,bignona,12.8103,-16.2264,26.02,83,100,2.05,SN,1691632240
148,motygino,58.1831,94.7592,16.69,82,100,1.72,RU,1691632241
149,celestun,20.8667,-90.4,28.6,79,56,6.67,MX,1691632241
150,ancud,-41.8697,-73.8203,9.74,89,100,7.26,CL,1691632242
151,kamaishi,39.2667,141.8833,27.9,76,22,6.79,JP,1691632242
152,tazovsky,67.4667,78.7,7.73,87,100,9.43,RU,1691632185
153,tiksi,71.6872,128.8694,20.98,39,37,3.07,RU,1691632166
154,nova sintra,14.8667,-24.7167,22.78,73,89,7.64,CV,1691632155
155,guangyuan,32.442,105.823,29.99,75,24,0.86,CN,1691632243
156,namibe,-15.1961,12.1522,15.93,90,20,3.83,AO,1691632243
157,rongelap,11.1635,166.8941,28.26,75,13,4.62,MH,1691632243
158,taoudenni,22.6783,-3.9836,36.59,27,30,5.46,ML,1691632243
159,mirpur sakro,24.5474,67.6277,27.76,79,100,8.94,PK,1691632244
160,santa cruz,-17.8,-63.1667,23.7,73,0,4.12,BO,1691632244
161,yellowknife,62.456,-114.3525,21.29,40,75,5.14,CA,1691632244
162,newman,37.3138,-121.0208,34.05,49,0,1.79,US,1691632140
163,georgetown,5.4112,100.3354,26.96,87,40,3.6,MY,1691631940
164,soufriere,13.8562,-61.0566,26.78,89,40,4.63,LC,1691632245
165,serhiyivka,46.0272,30.3768,20.7,62,17,6.32,UA,1691632245
166,mokhsogollokh,61.4681,128.9203,22.71,49,11,3.61,RU,1691632245
167,kaa-khem,51.6833,94.7333,19.56,67,84,2.09,RU,1691632245
168,torbat-e heydariyeh,35.274,59.2195,23.18,29,0,8.16,IR,1691632245
169,nepanagar,21.4667,76.4,24.8,83,25,2.61,IN,1691632246
170,huarmey,-10.0681,-78.1522,19.52,83,22,4.22,PE,1691632082
171,malvan,16.0667,73.4667,26.44,81,80,0.71,IN,1691632226
172,piscu,45.5,27.7333,16.99,67,100,2.09,RO,1691632246
173,nantucket,41.2835,-70.0995,24.45,71,0,5.14,US,1691632214
174,westport,41.1415,-73.3579,26.16,65,0,2.57,US,1691632013
175,luderitz,-26.6481,15.1594,23.23,40,100,4.63,NA,1691632247
176,udachny,66.4167,112.4,18.03,48,88,7.34,RU,1691632247
177,college,64.8569,-147.8028,22.55,70,75,4.63,US,1691632145
178,maun,-19.9833,23.4167,14.98,44,0,6.17,BW,1691632248
179,oruro,-17.9833,-67.15,7.21,22,0,4.05,BO,1691632248
180,antsiranana,-12.2787,49.2917,19.75,85,0,2.16,MG,1691632248
181,zhumysker,49.3333,49.4,22.54,48,0,3.28,KZ,1691632248
182,gadzhiyevo,69.2551,33.3362,17.33,77,0,3.55,RU,1691632248
183,tisul',55.7611,88.3122,18.68,73,59,3.28,RU,1691632249
184,eket,4.6412,7.9209,23.64,92,99,2.01,NG,1691632249
185,le lavandou,43.137,6.366,20.28,85,0,1.54,FR,1691632249
186,sumenep,-7.0167,113.8667,27.52,59,23,6.51,ID,1691632250
187,ranau,5.9538,116.6641,28.86,54,77,0.41,MY,1691632193
188,hermanus,-34.4187,19.2345,12.67,75,0,3.9,ZA,1691632250
189,thayetmyo,19.3167,95.1833,24.64,95,100,3.39,MM,1691632250
190,kavaratti,10.5669,72.642,27.57,79,100,7.7,IN,1691632250
191,dohar,23.5883,90.1469,27.99,78,95,1.93,BD,1691632251
192,ancaster,43.2257,-79.9767,24.01,76,100,3.09,CA,1691632078
193,rio tuba,8.5061,117.4317,29.02,74,74,4.97,PH,1691632251
194,hangu,39.2489,117.7892,30.02,70,100,2.45,CN,1691632251
195,sao gabriel da cachoeira,-0.1303,-67.0892,24.0,88,57,0.67,BR,1691632252
196,chibougamau,49.9168,-74.3659,19.79,64,75,1.54,CA,1691632039
197,broken hill,-31.95,141.4333,14.69,44,2,5.12,AU,1691632252
198,tobelo,1.7284,128.0095,29.82,62,100,3.18,ID,1691632227
199,vorkuta,67.5,64.0,11.55,71,75,4.87,RU,1691632240
200,autazes,-3.5797,-59.1306,29.1,52,71,1.55,BR,1691632253
201,grand falls-windsor,48.9332,-55.6649,13.61,89,100,0.45,CA,1691632203
202,al jawf,29.5,38.75,28.28,27,0,3.38,SA,1691632253
203,parsons,37.3403,-95.2611,27.93,80,1,4.05,US,1691632253
204,ahvaz,31.3203,48.6693,32.97,40,10,2.06,IR,1691632253
205,iskateley,67.6803,53.1512,11.94,81,0,2.57,RU,1691632169
206,lakatoro,-16.0999,167.4164,22.67,63,100,6.49,VU,1691632254
207,dolores,-36.3132,-57.6792,10.88,94,65,3.3,AR,1691632254
208,nybro,56.7446,15.9071,12.36,90,100,4.24,SE,1691632254
209,san agustin acasaguastlan,14.95,-89.9667,24.52,93,11,1.33,GT,1691632255
210,lazaro cardenas,17.9583,-102.2,28.58,79,100,0.27,MX,1691632255
211,arno,60.1167,18.6333,14.32,84,100,7.31,SE,1691632255
212,pudozh,61.8099,36.5345,16.33,86,51,1.57,RU,1691632255
213,klyuchi,52.2667,79.1667,21.58,45,81,2.41,RU,1691632255
214,tayaman,13.2295,120.5726,29.0,76,84,2.99,PH,1691632256
215,sao geraldo do araguaia,-6.4006,-48.555,25.19,69,29,1.4,BR,1691632256
216,saint-philippe,-21.3585,55.7679,19.77,83,39,3.97,RE,1691632256
217,kerikeri,-35.2268,173.9474,16.06,76,21,0.89,NZ,1691632149
218,ha tinh,18.3333,105.9,30.7,62,66,2.82,VN,1691632256
219,kingman,35.1894,-114.053,35.7,22,0,6.69,US,1691632257
220,portland,45.5234,-122.6762,27.99,61,40,4.63,US,1691631745
221,twon-brass,4.3151,6.2418,25.34,84,99,5.81,NG,1691632257
222,al ain city,24.1917,55.7606,35.79,32,9,5.66,AE,1691632257
223,sheksna,59.21,38.5107,17.98,95,100,1.4,RU,1691632257
224,harlingen,26.1906,-97.6961,32.05,80,0,9.77,US,1691632258
225,manismata,-2.4667,111.0333,28.5,64,65,2.36,ID,1691632258
226,mandalgarh,25.2,75.1,24.64,83,100,5.16,IN,1691632258
227,ta`u,-14.2336,-169.5144,27.19,80,29,5.34,AS,1691632258
228,woolgoolga,-30.1106,153.2007,21.93,40,8,4.08,AU,1691632259
229,nar'yan-mar,67.6713,53.087,12.0,81,0,2.6,RU,1691632149
230,port alfred,-33.5906,26.891,14.54,90,0,1.34,ZA,1691632259
231,malango,-2.9627,119.9001,25.39,67,89,1.4,ID,1691632259
232,acapulco de juarez,16.8634,-99.8901,29.9,79,100,2.06,MX,1691632111
233,kenai,60.5544,-151.2583,15.08,92,100,2.06,US,1691632229
234,puerto colombia,10.9878,-74.9547,25.05,84,100,5.86,CO,1691632260
235,colares,38.7992,-9.4469,21.29,86,3,7.15,PT,1691632184
236,mikhaylovsk,45.1283,42.0256,22.12,68,0,4.02,RU,1691632260
237,kiama,-34.6833,150.8667,21.25,44,61,6.71,AU,1691632260
238,cozumel,20.5083,-86.9458,31.08,86,2,2.24,MX,1691632013
239,wenchang,30.904,118.4887,30.21,69,92,2.04,CN,1691632261
240,nyurba,63.2842,118.3319,24.3,47,22,4.57,RU,1691632261
241,nuuk,64.1835,-51.7216,4.34,100,100,6.17,GL,1691632261
242,wafangdian,39.6183,122.0081,27.92,52,0,8.63,CN,1691632261
243,cockburn town,21.4612,-71.1419,28.71,78,80,7.33,TC,1691632262
244,tamanrasset,22.785,5.5228,27.95,28,73,4.12,DZ,1691632262
245,kisesa,-3.0833,34.15,17.72,61,5,3.73,TZ,1691632262
246,castillos,-34.1667,-53.8333,14.25,93,100,5.8,UY,1691632263
247,ciudad insurgentes,25.2625,-111.7753,28.34,63,27,7.66,MX,1691632263
248,tommot,58.9564,126.2925,24.19,64,25,1.07,RU,1691632263
249,bamboo flat,11.7,92.7167,29.05,84,40,3.6,IN,1691632265
250,puerto armuelles,8.2833,-82.8667,27.99,91,100,1.34,PA,1691632265
251,krasnyy kut,50.95,46.9667,21.22,49,0,2.96,RU,1691632265
252,selfoss,63.9331,-20.9971,11.14,75,100,2.55,IS,1691632045
253,i-n-salah,27.1935,2.4607,32.66,15,0,4.52,DZ,1691632266
254,palapye,-22.546,27.1251,11.98,60,27,3.66,BW,1691632266
255,kayangel,8.0823,134.7173,27.51,80,59,7.24,PW,1691632214
256,tsiombe,-25.3,45.4833,18.14,92,14,3.72,MG,1691632266
257,imbituba,-28.24,-48.6703,18.81,96,100,6.38,BR,1691632267
258,khanty-mansiysk,61.0042,69.0019,12.06,76,0,2.0,RU,1691632266
259,bambari,5.768,20.6757,21.45,99,100,1.34,CF,1691632267
260,kharan,28.5833,65.4167,30.54,20,34,1.83,PK,1691632268
261,nemuro,43.3236,145.575,20.52,95,100,6.83,JP,1691632054
262,liman,48.9884,37.8023,17.45,69,3,4.13,UA,1691632268
263,port douglas,-16.4833,145.4667,22.69,71,99,7.28,AU,1691632268
264,rabo de peixe,37.8,-25.5833,22.73,100,75,4.63,PT,1691632268
265,kodiak,57.79,-152.4072,13.73,82,100,2.06,US,1691632269
266,hammerfest,70.6634,23.6821,21.25,68,0,1.03,NO,1691631993
267,santa rosa de viterbo,-21.4728,-47.3631,19.0,58,0,1.22,BR,1691632269
268,peace river,56.2501,-117.286,17.17,100,100,2.57,CA,1691632195
269,santa rosa,14.3122,121.1114,32.27,76,72,4.13,PH,1691632115
270,rosetta,31.4044,30.4164,25.53,76,0,5.89,EG,1691632270
271,n'zeto,-7.2312,12.8666,20.41,92,36,2.74,AO,1691632270
272,luwuk,-0.9516,122.7875,27.61,75,77,2.94,ID,1691632270
273,swakopmund,-22.6833,14.5333,12.77,91,75,3.13,NA,1691632271
274,kingston,17.997,-76.7936,30.53,85,20,5.66,JM,1691632080
275,alaghsas,17.0187,8.0168,28.74,51,100,4.79,NE,1691632213
276,tamiahua,21.2667,-97.45,28.5,85,0,6.5,MX,1691632271
277,rawson,-43.3002,-65.1023,15.75,38,88,8.62,AR,1691632271
278,tumpat,6.1978,102.171,27.99,83,20,1.54,MY,1691632272
279,marsa alam,25.0757,34.8918,31.08,45,0,2.86,EG,1691632122
280,bonanza,14.0289,-84.591,24.66,93,100,0.73,NI,1691632272
281,magistral'nyy,56.1725,107.4458,17.16,98,100,1.23,RU,1691632272
282,dauphin,51.1494,-100.0502,17.08,67,0,3.09,CA,1691632164
283,lompoc,34.6391,-120.4579,24.08,82,100,2.57,US,1691632273
284,eyl,7.9803,49.8164,24.89,71,93,9.58,SO,1691632273
285,acipayam,37.4239,29.3494,19.97,75,0,0.7,TR,1691632273
286,piti village,13.4626,144.6933,28.49,89,75,3.6,GU,1691632273
287,gonzalez,30.5816,-87.2914,30.05,84,1,3.58,US,1691632117
288,waitara,-38.925,174.25,7.78,71,100,8.0,NZ,1691632274
289,mana,5.6592,-53.7767,25.68,89,12,5.1,GF,1691632172
290,santo anastacio,-21.8383,-51.6103,19.2,34,0,2.76,BR,1691632274
291,dakhla,23.6848,-15.958,20.47,92,21,9.2,EH,1691632196
292,berdigestyakh,62.0989,126.6992,23.07,43,2,4.53,RU,1691632275
293,baruun-urt,46.6806,113.2792,23.68,47,87,2.28,MN,1691632275
294,nikolayevsk-on-amure,53.1406,140.73,22.26,47,42,2.46,RU,1691632275
295,muroto-misakicho,33.2833,134.15,27.26,90,33,9.54,JP,1691632275
296,praia da vitoria,38.7333,-27.0667,22.14,94,75,2.57,PT,1691632159
297,mar del plata,-38.0023,-57.5575,12.83,94,75,3.6,AR,1691631903
298,mooroopna,-36.4,145.35,13.23,63,17,6.19,AU,1691632276
299,afaahiti,-17.75,-149.2833,27.93,71,100,6.68,PF,1691632276
300,anacortes,48.5126,-122.6127,21.08,75,100,6.69,US,1691632277
301,st. john's,47.5649,-52.7093,12.93,94,100,8.23,CA,1691632067
302,yerofey pavlovich,53.9667,121.9667,23.98,45,21,3.04,RU,1691632068
303,niquero,20.0431,-77.5828,25.68,77,100,2.48,CU,1691632277
304,lauro de freitas,-12.8944,-38.3272,26.01,69,75,4.63,BR,1691632058
305,pisco,-13.7,-76.2167,19.03,82,0,7.2,PE,1691632249
306,rantauprapat,2.1,99.8333,25.3,94,78,0.21,ID,1691632278
307,santa rita,-7.1139,-34.9781,24.37,83,20,4.12,BR,1691632278
308,price,39.5994,-110.8107,29.59,14,0,7.2,US,1691632278
309,sao martinho,39.5144,-9.1311,20.63,79,8,0.45,PT,1691632279
310,maceio,-9.6658,-35.7353,22.69,94,100,2.57,BR,1691632279
311,oume,35.7839,139.2431,32.23,56,20,4.63,JP,1691632279
312,kruisfontein,-34.0033,24.7314,10.49,86,0,2.72,ZA,1691632095
313,tweed heads,-28.1817,153.547,22.88,52,0,6.17,AU,1691632217
314,hanceville,34.0607,-86.7675,22.89,94,100,1.65,US,1691632280
315,corinto,37.9407,22.9573,23.27,62,0,0.55,GR,1691632280
316,baiti,13.745,-14.7482,25.2,80,100,3.74,SN,1691632280
317,buhusi,46.7167,26.7,15.72,64,100,0.49,RO,1691632280
318,aur,8.1499,171.1687,28.08,76,50,5.35,MH,1691632281
319,regina,50.4501,-104.6178,15.58,84,75,5.14,CA,1691631841
320,bahar,34.9072,48.4414,17.09,48,0,1.03,IR,1691632281
321,arraial do cabo,-22.9661,-42.0278,20.86,85,41,8.07,BR,1691632281
322,howrah,22.5892,88.3103,29.0,84,75,1.54,IN,1691632282
323,byron bay,-28.65,153.6167,22.06,44,0,3.68,AU,1691632252
324,salekhard,66.53,66.6019,13.36,65,17,3.31,RU,1691632282
325,brigantine,39.4101,-74.3646,26.11,73,0,3.6,US,1691632282
326,tralee,52.2704,-9.7026,15.49,91,20,3.91,IE,1691632183
327,kailua-kona,19.6406,-155.9956,30.98,73,40,6.17,US,1691632283
328,sorel-tracy,46.0334,-73.1159,22.94,73,53,1.04,CA,1691632283
329,klaksvik,62.2266,-6.589,7.51,78,24,3.0,FO,1691632283
330,aracena,37.894,-6.5612,20.62,41,0,1.79,ES,1691632207
331,bel ombre,-4.6167,55.4167,24.91,88,20,2.06,SC,1691632283
332,china,25.7,-99.2333,31.76,49,2,13.86,MX,1691631834
333,labrador city,52.9463,-66.9114,11.95,94,100,2.57,CA,1691632210
334,mil'kovo,55.6078,37.7956,15.73,73,84,2.9,RU,1691632284
335,shakhtersk,48.0625,38.5167,21.51,60,100,6.77,UA,1691632284
336,san patricio,28.017,-97.5169,31.97,77,0,8.79,US,1691632187
337,menziken,47.25,8.1833,15.44,89,20,0.0,CH,1691632285
338,salalah,17.0151,54.0924,26.05,94,100,4.12,OM,1691632216
339,la'ie,21.6477,-157.9253,31.98,67,7,8.84,US,1691632071
340,brajarajnagar,21.8167,83.9167,26.35,73,23,3.44,IN,1691632285
341,mangrol,21.1167,70.1167,27.06,85,100,7.83,IN,1691632286
342,riviere-du-loup,47.8304,-69.5342,15.15,94,96,0.51,CA,1691632013
343,puerto baquerizo moreno,-0.9,-89.6,23.68,80,64,3.05,EC,1691632287
344,tokoroa,-38.2333,175.8667,9.41,90,100,4.47,NZ,1691632287
345,luanco,43.6152,-5.7934,21.71,85,70,1.19,ES,1691632288
346,mount pearl,47.5166,-52.7813,12.75,92,100,8.23,CA,1691632288
347,igarka,67.4667,86.5833,15.75,85,100,0.98,RU,1691632288
348,xilin hot,43.9667,116.0333,25.2,49,81,3.52,CN,1691632289
349,aitape,-3.1374,142.3475,29.73,68,77,2.55,PG,1691632289
350,kulhudhuffushi,6.6221,73.07,27.88,78,100,7.05,MV,1691632289
351,guigang,23.0964,109.6092,28.94,78,98,1.7,CN,1691632289
352,qiqihar,47.3408,123.9672,20.76,83,95,4.63,CN,1691632289
353,port-vila,-17.7338,168.3219,24.78,53,40,5.66,VU,1691632290
354,bodo,67.28,14.405,16.36,64,0,5.66,NO,1691632290
355,colchani,-20.3,-66.9333,3.8,33,0,3.89,BO,1691632290
356,whitehorse,60.7161,-135.0538,21.72,37,75,2.06,CA,1691632290
357,rivne,50.6231,26.2274,16.71,66,100,1.73,UA,1691632291
358,sarikei,2.1167,111.5167,25.05,66,84,1.1,MY,1691632291
359,kirakira,-10.4544,161.9205,25.9,84,98,4.27,SB,1691632140
360,as sulayyil,20.4607,45.5779,29.14,13,2,0.85,SA,1691632291
361,askoy,60.4092,5.226,11.08,50,75,1.54,NO,1691632291
362,esperanza,19.5847,-70.9849,25.32,89,93,1.34,DO,1691632292
363,tamana,32.9167,130.5667,29.13,88,100,8.34,JP,1691632292
364,ivdel',60.6911,60.4206,14.46,92,100,1.78,RU,1691632292
365,markovo,57.3206,107.0881,17.07,97,100,1.84,RU,1691632292
366,ciudad acuna,29.3232,-100.9522,41.16,22,0,5.66,MX,1691632293
367,kataba,13.9833,44.3833,18.96,60,25,0.88,YE,1691632293
368,yingkou,40.6648,122.2283,27.39,53,0,8.92,CN,1691632293
369,la rinconada,37.4873,-5.9826,27.85,64,0,2.57,ES,1691632293
370,brookings,44.3114,-96.7984,24.0,77,0,2.06,US,1691632293
371,talovskiy,51.1144,40.73,19.16,65,62,3.12,RU,1691632294
372,bikenibeu village,1.3673,173.1241,31.98,66,20,2.57,KI,1691632294
373,argo,37.6333,22.7333,23.21,76,0,1.05,GR,1691632154
374,ariquemes,-9.9133,-63.0408,28.09,47,71,0.8,BR,1691632294
375,marka,1.7159,44.7717,23.85,87,39,6.27,SO,1691632295
376,bereznik,62.8551,42.7072,15.72,95,1,1.82,RU,1691632295
377,gafsa,34.425,8.7842,25.12,69,0,4.12,TN,1691632295
378,kabare,-2.4683,28.8242,16.57,70,32,0.43,CD,1691632295
379,ario de rayon,20.0333,-102.35,16.96,97,100,1.19,MX,1691632295
380,las tablas,7.7667,-80.2833,26.21,99,100,1.34,PA,1691632296
381,iwanai,42.9744,140.5089,32.1,63,99,1.37,JP,1691632296
382,coquimbo,-29.9533,-71.3436,13.85,88,100,3.6,CL,1691631796
383,ar ruways,24.1103,52.7306,31.1,76,0,2.0,AE,1691632296
384,lerwick,60.1545,-1.1494,11.0,77,71,5.49,GB,1691632296
385,la cruz,23.9167,-106.9,28.31,78,45,1.72,MX,1691632297
386,el calafate,-50.3408,-72.2768,1.3,86,14,1.07,AR,1691632297
387,manta,-0.95,-80.7333,25.56,78,75,7.6,EC,1691632297
388,puerto francisco de orellana,-0.4667,-76.9667,23.02,84,50,0.97,EC,1691632297
389,astrakhan,46.3497,48.0408,27.93,34,40,5.0,RU,1691632130
390,dickinson,29.4608,-95.0513,32.29,80,20,6.17,US,1691632267
391,perbaungan,3.5679,98.956,26.06,78,95,0.64,ID,1691632298
392,turkmenbasy,40.0222,52.9552,27.43,34,0,0.0,TM,1691632298
393,prince rupert,54.3161,-130.3201,15.05,93,100,7.2,CA,1691632298
394,novomichurinsk,54.0384,39.7479,14.72,79,4,3.12,RU,1691632299
395,fisterra,42.9049,-9.2629,20.97,90,79,7.0,ES,1691632269
396,sinabang,2.4803,96.3801,25.49,87,100,1.86,ID,1691632299
397,tafresh,34.692,50.013,20.92,38,0,2.78,IR,1691632299
398,healesville,-37.65,145.5167,13.2,89,40,2.6,AU,1691632300
399,mejit,10.2753,170.8646,28.04,70,78,4.89,MH,1691632300
400,naxos,37.1056,25.3764,25.35,74,1,8.49,GR,1691632300
401,kudahuvadhoo,2.6708,72.8944,27.01,79,100,4.5,MV,1691632300
402,yarmouth,41.7057,-70.2286,24.45,72,0,3.13,US,1691632300
403,belgrade,44.804,20.4651,18.55,83,20,1.54,RS,1691632301
404,banda aceh,5.5577,95.3222,28.65,69,77,4.89,ID,1691632301
405,kuusamo,65.9667,29.1833,15.61,98,43,2.54,FI,1691632301
406,fort bragg,35.139,-79.006,27.17,72,75,0.0,US,1691632192
407,shklow,54.2108,30.2919,13.23,70,99,2.85,BY,1691632302
408,fuyu,45.1833,124.8167,21.83,79,78,2.83,CN,1691632302
409,kaluga,54.5,35.5,11.3,90,2,1.77,RU,1691632302
410,bardai,11.65,7.2333,21.06,94,98,3.62,NG,1691632302
411,hluti,-27.2167,31.6167,14.75,83,99,0.85,SZ,1691632302
412,chiredzi,-21.05,31.6667,15.95,79,98,3.83,ZW,1691632303
413,puerto quijarro,-17.7833,-57.7667,26.81,45,0,1.04,BO,1691632303
414,zaozersk,69.4005,32.4476,18.34,74,0,1.92,RU,1691632224
415,vanino,49.0869,140.2543,16.78,79,100,2.74,RU,1691632303
416,trenggalek,-8.05,111.7167,27.64,100,23,2.67,ID,1691632303
417,lengshuitan,26.4111,111.5956,31.83,63,2,2.29,CN,1691632242
418,freetown,8.484,-13.2299,24.84,94,75,6.17,SL,1691632304
419,port saint john's,-31.6229,29.5448,16.37,87,49,3.88,ZA,1691632304
420,semera,11.501,41.201,26.06,54,90,1.86,ET,1691632304
421,kurchatov,51.6601,35.6521,12.23,89,10,2.48,RU,1691632304
422,enewetak,11.3474,162.3373,28.75,75,74,6.35,MH,1691632305
423,waingapu,-9.6567,120.2641,27.63,61,52,6.8,ID,1691632305
424,bontang,0.1333,117.5,28.34,71,90,3.24,ID,1691632305
425,dayton,39.7589,-84.1916,23.2,90,100,7.2,US,1691632108
426,minas novas,-17.2186,-42.5903,16.78,89,9,1.34,BR,1691632306
427,rio verde de mato grosso,-18.9181,-54.8442,26.91,39,0,1.56,BR,1691632306
428,zaio,34.9428,-2.7329,24.99,64,0,1.24,MA,1691632306
429,rundu,-17.9333,19.7667,15.28,25,7,4.63,NA,1691632306
430,yazman,29.1212,71.7446,30.55,58,85,7.61,PK,1691632306
431,troitsko-pechorsk,62.7084,56.1964,15.34,68,98,1.8,RU,1691632307
432,sidi bennour,32.6524,-8.4277,22.95,77,42,3.83,MA,1691632307
433,mili,6.0815,171.735,27.78,74,48,1.15,MH,1691632307
434,kill devil hills,36.0307,-75.676,26.66,80,0,2.06,US,1691632307
435,mandera,3.9366,41.867,24.83,58,92,6.56,KE,1691632307
436,cooma,-36.2333,149.1333,10.04,60,56,7.01,AU,1691632308
437,jinghong,21.991,100.7341,24.99,87,100,0.38,CN,1691632308
438,presicce,39.8991,18.2617,20.92,64,37,5.66,IT,1691632308
439,karasburg,-28.0167,18.75,15.54,18,0,5.77,NA,1691632308
440,jalai nur,49.45,117.7,22.39,53,74,3.61,CN,1691632309
441,kayyerkan,69.3786,87.7439,13.5,100,100,7.59,RU,1691632309
442,fedorovskiy,45.0972,40.9517,22.36,76,61,2.54,RU,1691632309
443,wuxi,31.5689,120.2886,30.4,62,70,3.67,CN,1691632309
444,lascano,-33.6667,-54.2,14.74,93,100,5.4,UY,1691632310
445,chonchi,-42.6128,-73.8092,9.56,91,96,3.99,CL,1691632311
446,ust'-ilimsk,58.0006,102.6619,19.53,66,100,2.13,RU,1691632311
447,kimje,35.8017,126.8889,22.94,94,100,10.21,KR,1691632311
448,san jeronimo de juarez,17.1333,-100.4667,28.27,81,100,0.82,MX,1691632312
449,inari,68.906,27.0288,16.11,91,3,0.79,FI,1691632312
450,olyokminsk,60.3736,120.4264,27.25,50,7,1.85,RU,1691632312
451,franceville,-1.6333,13.5836,22.12,75,43,0.95,GA,1691632312
452,shingu,33.7333,135.9833,27.42,89,11,5.58,JP,1691632250
453,vilyuchinsk,52.9306,158.4028,22.15,66,2,2.61,RU,1691632174
454,ixtapa,20.7,-105.2,25.13,88,52,0.76,MX,1691632313
455,ta'izz,13.5,44.0,24.14,53,100,0.97,YE,1691632313
456,levuka,50.1834,-105.4011,13.9,64,80,6.21,CA,1691632208
457,spring creek,40.7266,-115.5859,29.83,18,84,5.13,US,1691632314
458,los alamos,35.8881,-106.307,26.31,21,0,5.66,US,1691632314
459,luchow,52.9667,11.15,13.74,94,3,2.41,DE,1691632314
460,asau,46.4333,26.4,12.51,65,100,0.65,RO,1691632314
461,putra heights,2.9957,101.5671,28.65,81,20,3.09,MY,1691632314
462,belomorsk,64.5232,34.7668,16.06,86,0,2.38,RU,1691632315
463,valabhipur,21.8833,71.8667,27.02,78,100,5.14,IN,1691632315
464,beypazari,40.1675,31.9211,20.45,82,0,0.95,TR,1691632315
465,lipno,52.8444,19.1785,10.69,95,100,2.43,PL,1691632038
466,awash,8.9833,40.1667,21.11,79,97,2.89,ET,1691632315
467,morden,49.1919,-98.1014,18.92,52,100,3.09,CA,1691632204
468,knjazevac,43.5648,22.2502,17.79,94,100,0.89,RS,1691632316
469,vrontados,38.4089,26.1328,22.42,81,9,6.08,GR,1691632316
470,karaton,-6.3424,106.1045,28.11,64,8,1.43,ID,1691632316
471,arkhangel'sk,64.5401,40.5433,15.69,92,0,2.18,RU,1691632251
472,necochea,-38.5473,-58.7368,9.7,92,100,5.65,AR,1691632317
473,ciro marina,39.3732,17.126,23.17,51,20,3.05,IT,1691632317
474,brasilia,-15.7797,-47.9297,22.51,43,0,1.54,BR,1691632284
475,batikent,39.9683,32.7308,22.76,62,0,4.63,TR,1691632317
476,hasaki,35.7333,140.8333,32.94,79,100,4.55,JP,1691632317
477,inirida,3.8653,-67.9239,23.39,98,100,1.37,CO,1691632318
478,igrim,63.1906,64.4162,13.25,68,64,2.87,RU,1691632318
479,al hazm,16.1641,44.7769,27.27,31,47,1.73,YE,1691632318
480,minas de marcona,-15.2119,-75.1103,12.85,86,23,4.85,PE,1691632318
481,okahandja,-21.9833,16.9167,15.64,30,41,3.77,NA,1691632318
482,laguna,38.421,-121.4238,33.08,42,0,5.14,US,1691632091
483,merizo village,13.2658,144.6691,28.31,92,100,8.79,GU,1691632319
484,ahuacatlan,21.05,-104.4833,22.03,92,100,0.68,MX,1691632319
485,box elder,41.5005,-112.8764,27.37,44,100,3.48,US,1691632319
486,la spezia,44.1105,9.8434,20.88,79,6,1.64,IT,1691631801
487,gore,-46.1028,168.9436,4.64,88,69,1.1,NZ,1691632320
488,jiagedaqi,50.4167,124.1167,18.34,79,93,3.0,CN,1691632320
489,wankaner,22.6167,70.9333,27.34,79,100,6.56,IN,1691632320
490,aykhal,66.0,111.5,18.21,64,98,6.79,RU,1691632320
491,ijebu-igbo,6.9798,4.0033,21.87,99,100,1.03,NG,1691632321
492,gaigeturi,33.4644,126.3183,26.03,83,75,8.23,KR,1691632321
493,ingeniero guillermo n. juarez,-23.9,-61.85,19.22,59,3,2.74,AR,1691632321
494,timbuktu,16.7735,-3.0074,32.95,43,93,5.94,ML,1691632321
495,opuwo,-18.0607,13.84,15.7,39,2,1.98,NA,1691632322
496,vuktyl,63.8567,57.3094,14.81,76,54,2.97,RU,1691632322
497,huinan,42.6225,126.2614,21.94,87,100,3.11,CN,1691632322
498,banamba,13.55,-7.45,25.44,74,100,4.39,ML,1691632315
499,mount darwin,-16.7725,31.5838,8.69,84,0,1.77,ZW,1691632323
500,sakassou,7.4546,-5.2926,22.91,97,100,3.16,CI,1691632323
501,caconda,-13.7333,15.0667,14.01,51,5,1.11,AO,1691632323
502,bemidji,47.4736,-94.8803,18.28,75,0,2.57,US,1691632220
503,nelson,-41.2833,173.2833,4.84,85,98,1.02,NZ,1691632323
504,sola,-13.8833,167.55,22.88,84,100,11.64,VU,1691632324
505,faya-largeau,17.9257,19.1043,31.49,55,100,5.71,TD,1691632324
506,olinda,-8.0089,-34.8553,25.85,73,75,5.66,BR,1691632324
507,amahai,-3.3333,128.9167,26.47,78,100,4.13,ID,1691632324
508,haiku-pauwela,20.9219,-156.3051,30.01,57,20,11.32,US,1691632325
509,harper,4.375,-7.7169,24.19,83,100,5.13,LR,1691632325
510,khovd,48.0056,91.6419,18.24,62,7,2.09,MN,1691632325
511,chingirlau,51.095,54.0814,17.31,74,0,2.93,KZ,1691632325
512,ilheus,-14.7889,-39.0494,21.9,83,40,2.06,BR,1691632326
513,padang,-0.9492,100.3543,29.03,83,74,1.44,ID,1691632326
514,buncrana,55.1333,-7.45,16.03,96,38,1.74,IE,1691632326
515,sil-li,39.4947,125.4736,25.44,80,100,2.87,KP,1691632326
516,mahibadhoo,3.7833,72.9667,27.67,78,100,5.61,MV,1691632327
517,sault ste. marie,46.5168,-84.3333,18.31,90,0,3.09,CA,1691632038
518,paracuru,-3.41,-39.0306,26.73,85,38,4.96,BR,1691632327
519,visby,57.6409,18.296,13.23,88,75,6.69,SE,1691632327
520,kanchanaburi,14.6333,99.1,25.59,85,99,1.48,TH,1691632327
521,creston,41.0586,-94.3614,22.06,100,0,2.57,US,1691632328
522,linhares,-19.3911,-40.0722,19.53,97,32,1.0,BR,1691632328
523,nagqu,31.5,92.0,11.14,68,41,2.47,CN,1691632328
524,sao jose da coroa grande,-8.8978,-35.1478,23.75,77,6,4.47,BR,1691632168
525,torit,4.4133,32.5678,20.53,90,82,0.94,SS,1691632328
526,siran,40.1894,39.1267,19.22,72,0,1.22,TR,1691632329
527,kutum,14.2,24.6667,21.72,78,44,4.95,SD,1691632329
528,dompu,-8.5356,118.4622,29.71,50,5,1.84,ID,1691632329
529,la oliva,28.6105,-13.9291,22.62,88,0,6.69,ES,1691632329
530,jasper,37.2001,-94.3502,25.47,90,75,0.0,US,1691632062
531,dunedin,-45.8742,170.5036,8.78,52,68,3.13,NZ,1691632194
532,nova xavantina,-14.6667,-52.35,24.66,28,4,0.4,BR,1691632285
533,mount isa,-20.7333,139.5,25.87,27,8,5.14,AU,1691632144
534,hinis,39.3606,41.7022,18.68,43,0,1.3,TR,1691632331
535,shevchenko,48.5,35.0,16.67,71,0,3.85,UA,1691632331
536,chililabombwe,-12.3648,27.8229,12.7,47,0,3.62,ZM,1691632331
537,princeton,25.5384,-80.4089,31.01,86,0,0.0,US,1691631911
538,litvinov,50.6042,13.6181,13.12,70,32,1.16,CZ,1691632331
539,suining,30.508,105.5733,31.02,73,47,1.53,CN,1691632332
540,miyako,39.6367,141.9525,29.8,65,1,8.55,JP,1691632332
541,yuzhno-kurilsk,44.0306,145.8556,21.86,91,100,5.77,RU,1691632332
542,gondia,21.45,80.2,25.0,82,36,1.84,IN,1691632332
543,kapa'a,22.0752,-159.319,31.99,74,75,9.77,US,1691632334
544,umm qasr,30.0405,47.9168,32.93,36,6,0.68,IQ,1691632334
545,myrina,39.8797,25.0742,22.58,60,0,2.06,GR,1691632334
546,cholpon-ata,42.6494,77.0823,21.03,56,0,0.95,KG,1691632334
547,yarkovo,57.4028,67.0786,15.41,87,100,3.28,RU,1691632335
548,steinkjer,64.193,11.3851,10.52,75,23,4.66,NO,1691632335
549,porto novo,6.4965,2.6036,24.9,87,100,3.56,BJ,1691632335
550,new norfolk,-42.7826,147.0587,14.72,77,100,2.74,AU,1691632335
551,new plymouth,-39.0667,174.0833,7.4,80,99,6.78,NZ,1691632336
552,changshu city,31.6462,120.7422,29.71,69,11,4.4,CN,1691632336
553,crescentino,45.1904,8.0999,21.72,85,0,1.56,IT,1691632336
554,khorixas,-20.3667,14.9667,16.95,45,51,0.28,NA,1691632336
555,garachico,28.7781,-17.7646,22.06,73,0,6.69,ES,1691632336
556,south hedland,-20.4089,118.5983,27.96,20,2,3.09,AU,1691632337
557,ialibu,-6.2821,143.9935,16.02,83,98,1.71,PG,1691632337
558,luanda,-8.8368,13.2343,20.0,83,56,2.06,AO,1691632103
559,letlhakane,-21.4167,25.5833,12.1,56,0,6.86,BW,1691632337
560,madingou,-4.1536,13.55,23.53,70,20,1.37,CG,1691632337
561,belmonte,-15.8631,-38.8828,21.79,72,0,3.31,BR,1691632272
