City_ID,City,Lat,Lng,Max Temp,Humidity,Cloudiness,Wind Speed,Country,Date
0,ushuaia,-54.8,-68.3,4.81,70,40,1.03,AR,1691636488
1,puerto deseado,-47.7503,-65.8938,9.59,77,100,4.14,AR,1691636679
2,yellowknife,62.456,-114.3525,21.29,43,75,3.6,CA,1691636420
3,alice springs,-23.7,133.8833,24.75,19,1,6.17,AU,1691636472
4,isafjordur,66.0755,-23.124,7.56,76,33,7.34,IS,1691636446
5,bilibino,68.0546,166.4372,16.84,42,96,3.57,RU,1691636679
6,port-aux-francais,-49.35,70.2167,3.11,95,100,10.89,TF,1691636419
7,nar'yan-mar,67.6713,53.087,13.61,75,0,2.76,RU,1691636680
8,aasiaat,68.7098,-52.8699,3.04,91,93,4.75,GL,1691636680
9,bikenibeu village,1.3673,173.1241,31.98,66,20,2.06,KI,1691636681
10,saldanha,-33.0117,17.9442,11.03,65,0,2.63,ZA,1691636520
11,puerto ayora,-0.7393,-90.3518,24.19,92,46,2.24,EC,1691636681
12,hasaki,35.7333,140.8333,32.22,71,76,4.21,JP,1691636510
13,tiksi,71.6872,128.8694,21.07,39,29,2.46,RU,1691636682
14,nagqu,31.5,92.0,13.49,60,30,3.02,CN,1691636682
15,grytviken,-54.2811,-36.5092,-5.04,93,94,1.92,GS,1691636682
16,waitangi,-43.9535,-176.5597,11.57,78,2,1.34,NZ,1691636423
17,blackmans bay,-43.0167,147.3167,16.07,67,85,4.17,AU,1691636683
18,ribeira grande,38.5167,-28.7,20.99,86,88,3.13,PT,1691636683
19,albany,42.6001,-73.9662,19.89,83,33,0.89,US,1691636402
20,whitehorse,60.7161,-135.0538,20.43,39,75,3.09,CA,1691636683
21,cill airne,52.05,-9.5167,16.73,88,94,4.41,IE,1691636683
22,edinburgh of the seven seas,-37.0676,-12.3116,10.68,53,80,9.85,SH,1691636422
23,arteche,12.2645,125.4048,31.14,69,100,1.86,PH,1691636684
24,keflavik,64.0049,-22.5624,12.24,71,0,2.57,IS,1691636684
25,bethel,41.3712,-73.414,23.6,76,24,0.45,US,1691636405
26,jamestown,42.097,-79.2353,20.95,77,0,1.54,US,1691636440
27,ishigaki,24.3448,124.1572,31.07,84,20,4.12,JP,1691636685
28,mount isa,-20.7333,139.5,26.87,24,12,3.6,AU,1691636685
29,chibougamau,49.9168,-74.3659,17.79,72,100,2.06,CA,1691636564
30,punta arenas,-53.15,-70.9167,3.95,93,99,3.63,CL,1691636423
31,adamstown,-25.066,-130.1015,19.33,56,84,9.81,PN,1691636686
32,kingston,17.997,-76.7936,30.53,89,75,4.63,JM,1691636656
33,weno,7.4515,151.8468,28.43,73,92,3.3,FM,1691636686
34,grand gaube,-20.0064,57.6608,22.43,70,0,2.24,MU,1691636686
35,sudzha,51.1976,35.2726,13.32,87,8,2.71,RU,1691636686
36,saipan,15.1355,145.701,27.39,100,75,4.92,MP,1691636687
37,petropavlovsk-kamchatsky,53.0452,158.6483,22.33,49,40,4.0,RU,1691636687
38,san patricio,28.017,-97.5169,30.1,80,0,8.58,US,1691636687
39,thompson,55.7435,-97.8558,15.09,77,20,0.0,CA,1691636687
40,acarau,-2.8856,-40.12,25.0,84,46,6.4,BR,1691636688
41,port mathurin,-19.6833,63.4167,22.32,75,7,5.67,MU,1691636688
42,melekeok village,7.4957,134.6367,29.31,79,100,5.14,PW,1691636688
43,villa mercedes,-33.6757,-65.4578,15.12,41,100,5.55,AR,1691636688
44,suomussalmi,64.8869,28.9078,16.51,97,84,3.23,FI,1691636689
45,souillac,-20.5167,57.5167,21.21,78,40,4.12,MU,1691636463
46,bonner,48.8333,-117.0013,14.62,68,74,1.55,US,1691636689
47,puerto natales,-51.7236,-72.4875,2.21,94,84,1.61,CL,1691636689
48,camrose,53.0168,-112.8353,14.39,93,100,1.49,CA,1691636690
49,east london,-33.0153,27.9116,14.9,82,0,4.44,ZA,1691636435
50,bamboo flat,11.7,92.7167,30.05,79,40,5.14,IN,1691636690
51,st. john's,47.5649,-52.7093,13.21,93,100,6.17,CA,1691636422
52,west island,-12.1568,96.8225,26.99,74,40,6.17,CC,1691636480
53,margaret river,-33.95,115.0667,11.91,79,100,1.99,AU,1691636607
54,ancud,-41.8697,-73.8203,11.33,81,100,14.22,CL,1691636415
55,qarauyl,48.9451,79.255,25.27,44,40,8.14,KZ,1691636691
56,walvis bay,-22.9575,14.5053,13.53,94,90,5.66,NA,1691636692
57,corfu,39.62,19.9197,20.88,78,0,0.0,GR,1691636692
58,utrik,11.2278,169.8474,28.29,71,58,5.36,MH,1691636692
59,reggane,26.7158,0.1714,33.89,13,0,5.08,DZ,1691636693
60,invercargill,-46.4,168.35,7.79,69,17,0.45,NZ,1691636404
61,ouallam,14.3188,2.0866,27.31,72,96,4.02,NE,1691636546
62,badger,64.8,-147.5333,21.95,75,75,3.09,US,1691636406
63,madang,-5.2246,145.7966,29.02,69,28,4.19,PG,1691636693
64,mwene-ditu,-7.0,23.45,20.44,37,45,1.95,CD,1691636694
65,pacific grove,36.6177,-121.9166,16.8,87,100,3.09,US,1691636694
66,newman,37.3138,-121.0208,31.13,42,0,1.34,US,1691636694
67,lihue,21.9789,-159.3672,26.31,72,12,7.82,US,1691636511
68,boguchany,58.3814,97.4531,21.39,53,81,1.82,RU,1691636694
69,meiganga,6.5167,14.3,18.2,98,100,1.43,CM,1691636695
70,antsiranana,-12.2787,49.2917,19.63,85,0,2.05,MG,1691636695
71,papatowai,-46.5619,169.4708,5.56,74,52,3.35,NZ,1691636695
72,iqaluit,63.7506,-68.5145,5.85,100,100,4.63,CA,1691636480
73,awjilah,29.1081,21.2869,24.17,55,0,5.09,LY,1691636696
74,arraial do cabo,-22.9661,-42.0278,20.87,86,36,8.35,BR,1691636474
75,novyy urengoy,66.0833,76.6333,9.92,76,97,9.69,RU,1691636696
76,ilulissat,69.2167,-51.1,5.01,100,100,2.57,GL,1691636696
77,hoi an,15.8794,108.335,34.98,49,100,3.91,VN,1691636697
78,puerto baquerizo moreno,-0.9,-89.6,23.64,81,76,2.83,EC,1691636697
79,college,64.8569,-147.8028,21.99,71,75,3.09,US,1691636539
80,kyaikkami,16.08,97.5675,27.07,82,99,4.59,MM,1691636698
81,talnakh,69.4865,88.3972,14.56,51,100,2.8,RU,1691636698
82,wailua homesteads,22.0669,-159.378,30.24,76,75,8.75,US,1691636698
83,enkoping,59.6361,17.0777,12.02,97,100,4.35,SE,1691636698
84,mbanza-ngungu,-5.25,14.8667,20.05,79,56,2.67,CD,1691636698
85,rudnyy,52.9594,63.1206,19.13,65,76,5.2,KZ,1691636699
86,howard springs,-12.497,131.047,30.46,29,59,4.75,AU,1691636699
87,castillos,-34.1667,-53.8333,14.34,94,100,5.71,UY,1691636699
88,lahad datu,5.0268,118.327,29.5,67,86,2.09,MY,1691636699
89,atafu village,-8.5421,-172.5159,28.01,79,33,6.4,TK,1691636696
90,anadyr,64.75,177.4833,13.89,67,75,5.0,RU,1691636700
91,caras,-9.0467,-77.8114,17.53,66,48,0.59,PE,1691636558
92,carutapera,-1.195,-46.02,24.84,86,40,3.26,BR,1691636557
93,georgetown,5.4112,100.3354,26.96,87,40,1.54,MY,1691636577
94,tatarsk,55.219,75.9828,14.78,83,99,4.52,RU,1691636701
95,vorkuta,67.5,64.0,12.7,68,69,5.13,RU,1691636701
96,wynyard,-41.0,145.7167,13.09,64,42,5.66,AU,1691636702
97,poronaysk,49.2167,143.1167,15.92,85,100,3.23,RU,1691636702
98,betio village,1.358,172.9211,32.02,73,29,2.01,KI,1691636702
99,saint-pierre,-21.3393,55.4781,19.82,64,20,3.09,RE,1691636703
100,la passe,45.5549,-0.8967,21.13,67,15,3.17,FR,1691636703
101,pakse,15.1167,105.7833,27.08,89,40,2.06,LA,1691636703
102,soe,-9.8607,124.284,23.66,58,72,4.71,ID,1691636704
103,port alfred,-33.5906,26.891,14.54,91,0,1.34,ZA,1691636704
104,hawaiian paradise park,19.5933,-154.9731,27.73,70,75,3.6,US,1691636704
105,gulf shores,30.246,-87.7008,30.88,72,0,3.09,US,1691636424
106,tazovsky,67.4667,78.7,7.91,85,100,9.3,RU,1691636705
107,cabo san lucas,22.8909,-109.9124,29.78,78,40,5.14,MX,1691636400
108,caazapa,-26.15,-56.4,16.91,98,33,0.93,PY,1691636705
109,remire-montjoly,4.9167,-52.2667,26.02,89,0,1.03,GF,1691636706
110,benoy,8.9833,16.3199,20.12,95,100,1.81,TD,1691636706
111,dryden,49.7833,-92.7503,13.16,82,75,2.57,CA,1691636561
112,paso de los toros,-32.8167,-56.5167,14.35,88,98,4.7,UY,1691636706
113,katsuren-haebaru,26.3369,127.8719,32.21,77,40,2.57,JP,1691636707
114,olonkinbyen,70.9221,-8.7187,6.49,100,100,3.2,SJ,1691636707
115,bredasdorp,-34.5322,20.0403,9.77,86,0,1.81,ZA,1691636444
116,coquimbo,-29.9533,-71.3436,14.85,82,0,4.12,CL,1691636391
117,tocopilla,-22.092,-70.1979,17.18,78,14,4.0,CL,1691636708
118,constantia,44.1833,28.65,18.38,71,77,6.26,RO,1691636646
119,piggotts,17.1167,-61.8,27.38,89,40,3.09,AG,1691636708
120,shingu,33.7333,135.9833,27.6,87,12,5.85,JP,1691636708
121,faya-largeau,17.9257,19.1043,31.11,56,100,6.35,TD,1691636709
122,g'azalkent,41.5581,69.7708,30.02,26,0,0.61,UZ,1691636709
123,ta`u,-14.2336,-169.5144,27.33,79,35,5.41,AS,1691636709
124,yarmouth,41.7057,-70.2286,24.03,73,20,5.36,US,1691636591
125,geraldton,-28.7667,114.6,16.23,77,100,3.6,AU,1691636710
126,callao,-12.0667,-77.15,21.16,73,100,5.14,PE,1691636555
127,jeddah,21.5169,39.2192,29.92,84,40,2.06,SA,1691636710
128,yaren,-0.5472,166.916,28.2,72,63,1.81,NR,1691636710
129,shitanjing,39.2342,106.3439,28.69,48,54,0.88,CN,1691636711
130,san antonio de pale,-1.4014,5.6325,23.57,79,95,5.08,GQ,1691636572
131,alcarras,41.5667,0.5167,25.43,79,0,1.03,ES,1691636711
132,nieuw amsterdam,5.8833,-55.0833,27.23,84,19,4.68,SR,1691636711
133,luwuk,-0.9516,122.7875,28.53,71,70,3.44,ID,1691636712
134,bathsheba,13.2167,-59.5167,28.34,83,40,5.14,BB,1691636712
135,itoman,26.1247,127.6694,31.43,84,20,3.09,JP,1691636548
136,argo,37.6333,22.7333,22.66,75,0,1.19,GR,1691636712
137,berdigestyakh,62.0989,126.6992,24.19,42,2,4.49,RU,1691636712
138,zyryanskoye,56.8306,86.6258,21.06,55,82,4.51,RU,1691636713
139,tokar,18.4254,37.729,34.81,43,48,8.5,SD,1691636713
140,fort bragg,35.139,-79.006,26.06,80,0,0.0,US,1691636713
141,kiunga,-6.1219,141.2906,28.45,59,90,2.34,PG,1691636713
142,moyynkum,44.2914,72.9469,31.85,25,2,4.73,KZ,1691636714
143,sars,56.5502,57.1366,18.4,71,73,3.29,RU,1691636714
144,longyearbyen,78.2186,15.6401,9.91,62,0,1.54,SJ,1691636707
145,ungsang-nodongjagu,42.3578,130.4622,19.84,97,100,2.43,KP,1691636715
146,shahr-e babak,30.1165,55.1186,24.72,24,43,5.14,IR,1691636715
147,mar del plata,-38.0023,-57.5575,12.83,95,75,4.12,AR,1691636431
148,saint-francois,46.4154,3.9054,15.69,88,0,2.06,FR,1691636715
149,fortuna,40.5982,-124.1573,19.4,90,100,4.63,US,1691636716
150,barra de santo antonio,-9.4047,-35.5072,22.6,80,5,4.47,BR,1691636621
151,lent'ekhi,42.7856,42.7261,23.56,73,39,2.61,GE,1691636716
152,grantsville,40.5999,-112.4644,27.52,42,0,2.57,US,1691636716
153,hithadhoo,-0.6,73.0833,27.25,75,67,2.26,MV,1691636597
154,kavieng,-2.5744,150.7967,28.56,74,100,7.12,PG,1691636717
155,east ballina,-28.8667,153.5833,23.22,44,1,3.45,AU,1691636717
156,nemuro,43.3236,145.575,20.69,94,100,7.26,JP,1691636717
157,vilyuchinsk,52.9306,158.4028,23.15,72,6,3.49,RU,1691636718
158,chonchi,-42.6128,-73.8092,8.56,94,97,3.77,CL,1691636718
159,iskateley,67.6803,53.1512,13.55,75,0,2.75,RU,1691636708
160,hanceville,34.0607,-86.7675,22.95,93,86,1.78,US,1691636718
161,broken hill,-31.95,141.4333,15.44,40,2,4.35,AU,1691636719
162,douz,33.4663,9.0203,25.52,47,0,4.5,TN,1691636719
163,port elizabeth,-33.918,25.5701,13.16,94,0,3.09,ZA,1691636697
164,katsuura,35.1333,140.3,28.96,72,80,4.69,JP,1691636508
165,kapa'a,22.0752,-159.319,30.99,76,75,8.75,US,1691636720
166,joao pinheiro,-17.7425,-46.1725,19.49,49,0,4.26,BR,1691636486
167,fort st. john,56.2499,-120.8529,20.94,49,75,5.14,CA,1691636720
168,lebu,-37.6167,-73.65,11.3,88,43,5.95,CL,1691636491
169,ghadamis,30.1337,9.5007,27.76,28,0,4.73,LY,1691636721
170,polyarnyy,69.1989,33.4478,17.61,78,0,3.53,RU,1691636721
171,general jose de san martin,-26.5374,-59.3416,19.2,81,100,2.43,AR,1691636721
172,kars,40.602,43.095,13.25,94,0,1.54,TR,1691636721
173,fale old settlement,-9.3852,-171.2468,28.06,78,31,6.58,TK,1691636711
174,guane,22.2025,-84.0875,27.51,81,4,1.89,CU,1691636722
175,codigoro,44.8311,12.1142,20.05,73,62,3.67,IT,1691636722
176,parabel',58.6978,81.4825,10.65,97,100,3.84,RU,1691636723
177,medina,24.4686,39.6142,32.24,9,0,2.06,SA,1691636723
178,salair,54.2312,85.7972,20.04,64,59,3.47,RU,1691636723
179,mount pearl,47.5166,-52.7813,12.75,93,100,6.17,CA,1691636723
180,yatou,37.15,122.3833,29.32,70,2,9.04,CN,1691636724
181,praia da vitoria,38.7333,-27.0667,22.14,94,40,2.75,PT,1691636724
182,humberto de campos,-2.5983,-43.4611,23.9,90,17,2.44,BR,1691636724
183,portland,45.5234,-122.6762,25.97,68,40,4.63,US,1691636143
184,seeb,23.6703,58.1891,32.05,79,0,1.54,OM,1691636725
185,murashi,59.3999,48.9615,18.21,80,7,0.99,RU,1691636725
186,lata,40.1629,-8.3327,17.18,95,60,1.07,PT,1691636454
187,kodiak,57.79,-152.4072,12.73,88,75,2.06,US,1691636725
188,krasnovishersk,60.4078,57.082,16.01,63,100,2.26,RU,1691636725
189,kuta,-8.7233,115.1723,25.97,78,20,2.68,ID,1691636726
190,turpan,42.9333,89.1667,36.35,20,3,1.6,CN,1691636726
191,nuuk,64.1835,-51.7216,4.34,100,100,5.14,GL,1691636726
192,wenchang,30.904,118.4887,31.36,63,90,2.36,CN,1691636726
193,baruun-urt,46.6806,113.2792,25.09,43,91,3.48,MN,1691636727
194,kirishi,59.4471,32.0205,12.5,73,19,1.93,RU,1691636727
195,kodinsk,58.6881,99.1844,22.62,51,95,2.45,RU,1691636727
196,afaahiti,-17.75,-149.2833,25.93,72,97,7.01,PF,1691636728
197,new norfolk,-42.7826,147.0587,16.72,63,86,4.0,AU,1691636728
198,yuzhno-kurilsk,44.0306,145.8556,21.81,91,100,5.86,RU,1691636476
199,arno,60.1167,18.6333,14.32,88,100,7.39,SE,1691636729
200,uturoa,-16.7333,-151.4333,24.89,71,74,8.09,PF,1691636490
201,mana,5.6592,-53.7767,25.58,90,13,5.2,GF,1691636732
202,sterling,39.0062,-77.4286,25.63,77,75,2.06,US,1691636732
203,hoemul-li,41.4339,129.67,20.82,98,100,4.54,KP,1691636733
204,ustrzyki dolne,49.4304,22.5938,13.34,72,100,0.44,PL,1691636733
205,hotan,37.0997,79.9269,31.05,21,13,1.31,CN,1691636543
206,cave spring,37.2276,-80.0128,24.11,84,0,1.54,US,1691636733
207,vorgashor,67.5833,63.95,12.39,69,73,4.68,RU,1691636457
208,chabahar,25.2919,60.643,27.21,83,80,4.1,IR,1691636734
209,pasni,25.2631,63.471,27.19,82,100,5.1,PK,1691636734
210,san gabriel,34.0961,-118.1058,26.54,69,0,2.57,US,1691636734
211,vila velha,-20.3297,-40.2925,22.97,89,40,3.6,BR,1691636445
212,mora,11.0461,14.1401,22.69,85,100,1.1,CM,1691636741
213,pachino,36.7186,15.0907,23.16,66,5,2.01,IT,1691636741
214,nova sintra,14.8667,-24.7167,22.73,73,76,7.03,CV,1691636742
215,hermanus,-34.4187,19.2345,12.11,72,0,3.72,ZA,1691636742
216,camacupa,-12.0167,17.4833,14.33,38,6,0.99,AO,1691636742
217,codajas,-3.8367,-62.0569,24.77,77,67,0.44,BR,1691636742
218,tura,25.5198,90.2201,26.15,91,100,1.41,IN,1691636753
219,altay,47.8667,88.1167,20.65,62,0,2.0,CN,1691636722
220,east end,34.5507,-92.341,29.03,86,81,1.32,US,1691636753
221,manokwari,-0.8667,134.0833,27.49,77,100,2.6,ID,1691636753
222,sao joao da barra,-21.6403,-41.0511,21.16,87,86,4.72,BR,1691636754
223,mount gambier,-37.8333,140.7667,12.21,68,100,3.77,AU,1691636754
224,semenivka,52.1783,32.5818,12.06,71,10,1.75,UA,1691636754
225,sandnessjoen,66.0217,12.6316,15.23,63,20,3.09,NO,1691636754
226,khandyga,62.6667,135.6,25.43,32,21,1.07,RU,1691636755
227,sanibel,26.449,-82.0223,32.03,78,19,0.45,US,1691636755
228,carnarvon,-24.8667,113.6333,23.44,54,2,2.95,AU,1691636755
229,karratha,-20.7377,116.8463,27.2,29,55,4.45,AU,1691636565
230,malakal,9.5334,31.6605,23.1,90,100,0.43,SS,1691636755
231,al qusayr,34.5091,36.5798,21.56,80,0,1.46,SY,1691636756
232,ribeira brava,32.65,-17.0667,24.35,73,2,1.52,PT,1691636756
233,mermoz boabab,14.7065,-17.4758,26.88,74,40,2.06,SN,1691636756
234,bafoulabe,13.8065,-10.8321,26.01,82,81,3.01,ML,1691636756
235,socorro,31.6546,-106.3033,36.56,18,40,7.2,US,1691636563
236,gornozavodsk,58.3758,58.3211,15.89,68,47,2.47,RU,1691636757
237,sant'ilario d'enza,44.7625,10.4481,18.71,75,43,1.1,IT,1691636757
238,loreto,22.2667,-101.9667,20.15,55,77,2.03,MX,1691636757
239,menongue,-14.6585,17.691,11.64,48,4,2.12,AO,1691636758
240,narasannapeta,18.4167,84.05,30.58,61,56,2.27,IN,1691636758
241,balykshi,47.0667,51.8667,22.0,46,0,4.0,KZ,1691636758
242,altayskoye,51.9533,85.3325,24.29,44,25,1.84,RU,1691636758
243,bambanglipuro,-7.95,110.2833,26.97,63,35,4.86,ID,1691636758
244,punta del este,-34.9667,-54.95,15.06,95,100,2.24,UY,1691636538
245,beloyarskiy,63.7119,66.6722,14.62,64,14,4.81,RU,1691636759
246,penzance,50.1186,-5.5371,15.38,95,37,7.19,GB,1691636759
247,sidi aissa,35.8855,3.7724,25.62,32,0,1.73,DZ,1691636759
248,mont-laurier,46.5501,-75.4993,18.79,88,52,1.5,CA,1691636759
249,kotovo,50.3211,44.8012,22.41,48,19,3.86,RU,1691636760
250,ust-nera,64.5667,143.2,21.38,42,5,1.6,RU,1691636556
251,tralee,52.2704,-9.7026,15.23,91,18,3.9,IE,1691636760
252,chapeco,-27.0964,-52.6183,13.92,98,78,1.08,BR,1691636760
253,ballito,-29.539,31.2144,12.08,87,20,0.51,ZA,1691636761
254,barmer,25.75,71.3833,28.43,65,51,8.01,IN,1691636761
255,taoudenni,22.6783,-3.9836,35.73,29,48,2.87,ML,1691636761
256,hamilton,39.1834,-84.5333,23.06,91,100,3.6,US,1691636754
257,stanley,54.868,-1.6985,16.55,92,40,1.03,GB,1691636762
258,bodden town,19.2833,-81.25,29.96,86,40,1.03,KY,1691636762
259,cedar park,30.5052,-97.8203,34.13,61,3,8.94,US,1691636744
260,lashio,22.9333,97.75,23.21,88,100,0.77,MM,1691636762
261,olyokminsk,60.3736,120.4264,29.36,42,6,1.88,RU,1691636763
262,nenjiang,49.1833,125.2167,19.89,86,99,3.58,CN,1691636763
263,cidreira,-30.1811,-50.2056,16.44,95,100,7.53,BR,1691636763
264,banda aceh,5.5577,95.3222,29.55,66,84,5.61,ID,1691636728
265,rongelap,11.1635,166.8941,28.39,75,13,4.67,MH,1691636483
266,la sarre,48.8002,-79.1996,12.72,96,65,1.96,CA,1691636764
267,severo-yeniseyskiy,60.3725,93.0408,17.73,55,28,3.33,RU,1691636764
268,al bayda',32.7627,21.7551,20.42,78,70,4.88,LY,1691636764
269,paramonga,-10.6667,-77.8333,18.99,85,34,4.03,PE,1691636765
270,avarua,-21.2078,-159.775,25.03,65,75,7.72,CK,1691636761
271,udachny,66.4167,112.4,18.03,48,91,7.68,RU,1691636469
272,pandan,14.0453,124.1694,31.36,62,79,2.72,PH,1691636765
273,thunder bay,48.4001,-89.3168,16.99,77,75,3.09,CA,1691636641
274,cannonvale,-20.2833,148.7,20.66,61,31,6.51,AU,1691636481
275,mzimba,-11.9,33.6,11.8,81,1,4.74,MW,1691636766
276,melfort,52.8667,-104.6177,16.07,55,100,2.57,CA,1691636766
277,dudinka,69.4058,86.1778,14.79,60,100,9.92,RU,1691636766
278,puerto santa,-8.9906,-78.6456,19.62,83,46,4.74,PE,1691636766
279,sitka,57.0531,-135.33,15.94,82,100,2.57,US,1691636767
280,chos malal,-37.3781,-70.2709,9.39,63,86,8.31,AR,1691636767
281,copiapo,-27.3667,-70.3333,12.83,81,96,0.96,CL,1691636767
282,santa maria del oro,25.9333,-105.3667,22.28,47,20,5.52,MX,1691636767
283,kita,13.0349,-9.4895,24.96,84,70,2.35,ML,1691636768
284,san martin,-33.081,-68.4681,10.3,53,76,2.33,AR,1691636768
285,kamaishi,39.2667,141.8833,28.34,73,20,7.0,JP,1691636768
286,salekhard,66.53,66.6019,15.16,59,14,4.97,RU,1691636769
287,la'ie,21.6477,-157.9253,28.98,66,6,8.56,US,1691636765
288,vernon,50.2581,-119.2691,26.2,36,31,1.54,CA,1691636760
289,collie,-33.3667,116.15,8.67,94,100,1.32,AU,1691636769
290,guantanamo,20.1444,-75.2092,30.76,88,73,2.21,CU,1691636606
291,bagneres-de-bigorre,43.0667,0.15,19.83,88,100,4.63,FR,1691636770
292,cockburn town,21.4612,-71.1419,28.7,79,78,7.19,TC,1691636770
293,flying fish cove,-10.4217,105.6791,25.82,73,40,7.2,CX,1691636770
294,hammerfest,70.6634,23.6821,22.25,64,100,1.03,NO,1691636770
295,juneau,58.3019,-134.4197,15.12,98,100,4.63,US,1691636771
296,greenfields,-33.0333,27.8622,15.64,81,5,7.39,ZA,1691636771
297,pisco,-13.7,-76.2167,18.03,88,40,3.09,PE,1691636771
298,kalmunai,7.4167,81.8167,28.63,69,100,2.24,LK,1691636570
299,sunnyside,46.3237,-120.0087,27.53,39,75,5.66,US,1691636772
300,waslala,13.2333,-85.3833,23.72,93,20,0.5,NI,1691636772
301,jumla,29.2747,82.1838,19.5,89,100,0.42,NP,1691636772
302,kailua-kona,19.6406,-155.9956,29.98,67,75,4.63,US,1691636766
303,iringa,-7.7667,35.7,11.82,86,5,3.42,TZ,1691636772
304,bodaybo,57.8506,114.1933,25.19,55,100,1.17,RU,1691636773
305,midvagur,62.0511,-7.1939,8.46,81,100,0.0,FO,1691636478
306,choyr,46.3611,108.3611,22.31,51,78,5.03,MN,1691636773
307,mutuali,-14.8706,37.0044,14.81,84,48,1.12,MZ,1691636773
308,ternitz,47.7156,16.0357,12.07,92,6,1.8,AT,1691636774
309,bulgan,48.8125,103.5347,22.07,61,52,3.32,MN,1691636774
310,peace river,56.2501,-117.286,17.17,100,100,1.03,CA,1691636774
311,sydney,-33.8679,151.2073,24.08,35,0,8.23,AU,1691636285
312,broome,42.2506,-75.833,19.26,93,95,1.12,US,1691636774
313,berezovo,63.9381,65.0419,13.52,68,100,4.07,RU,1691636775
314,susuman,62.7833,148.1667,15.44,45,6,1.18,RU,1691636775
315,lepsy,46.235,78.9456,29.48,26,0,1.7,KZ,1691636775
316,pavlogradka,54.2024,73.5592,21.81,43,56,3.9,RU,1691636775
317,sao jose da coroa grande,-8.8978,-35.1478,23.49,77,5,4.02,BR,1691636776
318,dutsin-ma,12.4517,7.4981,22.58,88,98,3.12,NG,1691636776
319,champerico,14.3,-91.9167,28.1,77,48,2.12,GT,1691636776
320,zuenoula,7.4292,-6.0431,21.99,96,100,3.19,CI,1691636776
321,colonia,50.9333,6.95,14.92,84,0,1.03,DE,1691636753
322,chapada dos guimaraes,-15.4606,-55.7497,22.81,29,12,2.61,BR,1691636777
323,inarajan village,13.2736,144.7484,29.66,86,100,8.6,GU,1691636777
324,tolanaro,-25.0319,46.9987,19.04,94,40,2.06,MG,1691636772
325,sur,22.5667,59.5289,29.62,61,58,4.57,OM,1691636778
326,howrah,22.5892,88.3103,30.0,84,40,3.6,IN,1691636484
327,malpe,13.35,74.7167,27.61,83,99,1.36,IN,1691636778
328,quellon,-43.1167,-73.6167,10.14,93,100,7.2,CL,1691636478
329,cabedelo,-6.9811,-34.8339,22.37,83,27,6.13,BR,1691636764
330,kavaratti,10.5669,72.642,27.67,78,100,7.89,IN,1691636779
331,port lincoln,-34.7333,135.8667,14.79,56,33,4.5,AU,1691636779
332,mokhsogollokh,61.4681,128.9203,23.72,46,12,3.95,RU,1691636779
333,assai,-23.3733,-50.8414,16.92,86,1,2.24,BR,1691636779
334,governador valadares,-18.8511,-41.9494,20.95,82,90,1.95,BR,1691636779
335,nikolayevsk-on-amure,53.1406,140.73,22.16,47,61,2.71,RU,1691636780
336,cherdyn',60.403,56.4787,15.91,64,86,2.82,RU,1691636780
337,ixtapa,20.7,-105.2,25.13,100,75,2.57,MX,1691636780
338,watford city,47.8022,-103.2832,19.14,68,20,4.12,US,1691636742
339,holyhead,53.3062,-4.6321,19.04,94,100,0.51,GB,1691636781
340,murudeshwara,14.0943,74.4845,26.6,80,84,0.29,IN,1691636781
341,pago pago,-14.2781,-170.7025,29.55,79,75,4.12,AS,1691636781
342,tsengel,49.4783,100.8894,19.59,62,16,5.82,MN,1691636781
343,belawan,3.7755,98.6832,28.16,71,84,0.27,ID,1691636782
344,ravar,31.2656,56.8055,27.72,23,1,1.42,IR,1691636782
345,pir mahal,30.7667,72.4333,34.02,45,98,5.08,PK,1691636782
346,mawlaik,23.6333,94.4167,24.91,100,100,0.51,MM,1691636782
347,el nido,11.1858,119.3956,28.98,77,50,6.48,PH,1691636783
348,igarka,67.4667,86.5833,16.81,80,99,0.74,RU,1691636783
349,zhalantun,48.0,122.7167,22.04,75,51,3.08,CN,1691636783
350,point fortin,10.1833,-61.6833,26.05,82,100,6.14,TT,1691636783
351,homer,59.6425,-151.5483,13.91,94,100,3.09,US,1691636722
352,salahonda,2.1019,-78.7217,26.69,84,100,4.14,CO,1691636784
353,ola,59.5833,151.2833,21.75,54,10,3.92,RU,1691636756
354,touros,-5.1989,-35.4608,23.62,84,53,5.87,BR,1691636767
355,nur-sultan,51.1801,71.446,20.97,64,40,2.0,KZ,1691636573
356,ar ruways,24.1103,52.7306,31.99,72,0,2.12,AE,1691636785
357,queenstown,-31.8976,26.8753,8.24,81,21,1.43,ZA,1691636785
358,manta,-0.95,-80.7333,25.56,78,75,7.6,EC,1691636785
359,alofi,-19.0595,-169.9187,27.94,78,75,2.57,NU,1691636785
360,tallkayf,36.4894,43.1192,34.34,15,0,2.15,IQ,1691636785
361,rio grande,-32.035,-52.0986,15.53,94,100,7.18,BR,1691636766
362,zalanga,10.6143,10.1765,21.39,92,100,0.82,NG,1691636786
363,happy valley-goose bay,53.3168,-60.3315,16.17,77,100,2.06,CA,1691636699
364,freetown,8.484,-13.2299,24.84,88,75,6.17,SL,1691636786
365,khanbari,27.3747,87.2039,26.42,81,62,1.38,NP,1691636553
366,sabang,5.8933,95.3214,27.89,76,87,8.15,ID,1691636787
367,poulsbo,47.7359,-122.6465,22.21,77,79,1.79,US,1691636787
368,shahrud,36.4182,54.9763,22.75,31,0,2.4,IR,1691636787
369,sohbatpur,28.5202,68.5434,32.16,55,26,4.87,PK,1691636788
370,port saint john's,-31.6229,29.5448,16.16,88,39,3.81,ZA,1691636788
371,dem'yanovo,60.3511,47.0842,18.43,82,6,1.2,RU,1691636788
372,coahuayana de hidalgo,18.7,-103.6583,25.18,78,87,2.05,MX,1691636788
373,chistyye bory,58.3647,41.6278,17.62,81,45,2.43,RU,1691636788
374,vadso,70.0744,29.7487,19.49,82,0,2.57,NO,1691636789
375,zemio,5.0314,25.1361,20.52,99,100,1.4,CF,1691636789
376,north bend,43.4065,-124.2243,21.07,88,0,4.63,US,1691636789
377,youssoufia,32.2463,-8.5294,25.17,64,14,3.01,MA,1691636789
378,pudozh,61.8099,36.5345,17.38,84,43,1.54,RU,1691636790
379,necochea,-38.5473,-58.7368,9.73,92,100,5.73,AR,1691636790
380,qaqortoq,60.7167,-46.0333,5.81,85,9,0.81,GL,1691636696
381,belmonte,-15.8631,-38.8828,21.62,72,1,3.13,BR,1691636790
382,boekel,51.6033,5.675,13.82,88,100,0.51,NL,1691636791
383,grahamstown,-33.3042,26.5328,11.08,86,0,2.19,ZA,1691636791
384,kayes,14.0,-11.0,26.16,81,81,5.34,ML,1691636791
385,mahajanga,-15.7167,46.3167,19.01,94,20,2.06,MG,1691636792
386,autazes,-3.5797,-59.1306,28.62,54,74,1.57,BR,1691636603
387,hilo,19.7297,-155.09,27.85,74,75,3.6,US,1691636765
388,qianjiang,30.4151,112.8859,30.59,69,7,3.93,CN,1691636792
389,phon charoen,18.0333,103.1667,31.55,72,97,3.94,TH,1691636792
390,barah,13.7,30.3667,25.38,70,99,4.4,SD,1691636793
391,kulhudhuffushi,6.6221,73.07,27.86,78,100,7.19,MV,1691636793
392,chipinge,-20.1883,32.6236,11.64,95,69,1.76,ZW,1691636794
393,nguigmi,14.2495,13.1092,25.82,71,100,3.05,NE,1691636794
394,zinjibar,13.1287,45.3807,29.63,72,65,2.43,YE,1691636794
395,saint-joseph,-21.3667,55.6167,19.21,79,23,1.82,RE,1691636794
396,atakpame,7.5333,1.1333,20.67,96,99,2.35,TG,1691636795
397,springbok,-29.6643,17.8865,14.99,23,0,4.17,ZA,1691636550
398,lompoc,34.6391,-120.4579,20.08,86,100,1.54,US,1691636759
399,bafilo,9.35,1.2667,20.34,96,100,2.39,TG,1691636795
400,ushtobe,45.2514,77.9838,32.49,20,3,2.2,KZ,1691636796
401,daru,-9.0763,143.2092,24.26,84,100,7.42,PG,1691636796
402,dali,25.7,100.1833,20.67,83,100,0.98,CN,1691636796
403,gamba,-2.65,10.0,21.09,94,100,0.95,GA,1691636796
404,lae,-6.7221,146.9847,26.37,92,100,2.51,PG,1691636797
405,borba,-4.3878,-59.5939,26.83,58,11,1.44,BR,1691636677
406,kosonsoy,41.2561,71.5508,26.31,25,4,2.59,UZ,1691636797
407,maracacume,-2.0428,-45.9592,22.34,98,62,1.59,BR,1691636797
408,itaituba,-4.2761,-55.9836,25.55,69,11,0.97,BR,1691636797
409,galesong,-5.3166,119.3661,31.01,61,38,1.87,ID,1691636798
410,haiku-pauwela,20.9219,-156.3051,28.01,60,20,10.29,US,1691636798
411,lamu,-2.2717,40.902,24.12,85,76,5.22,KE,1691636798
412,alo,7.4178,6.7371,22.13,98,74,1.53,NG,1691636798
413,luderitz,-26.6481,15.1594,22.05,44,99,1.45,NA,1691636799
414,semey,50.4111,80.2275,24.12,41,0,5.0,KZ,1691636799
415,goundam,16.4145,-3.6708,33.05,42,99,6.41,ML,1691636799
416,shendi,16.6915,33.4341,29.96,57,93,3.77,SD,1691636799
417,zaozersk,69.4005,32.4476,19.54,73,0,1.8,RU,1691636799
418,quibdo,5.6947,-76.6611,24.19,97,92,0.74,CO,1691636800
419,callaway,30.153,-85.5699,29.97,80,0,3.09,US,1691636800
420,al jawf,29.5,38.75,27.03,27,0,3.67,SA,1691636719
421,zaraza,9.3503,-65.3245,24.41,91,95,0.98,VE,1691636800
422,ciudad lazaro cardenas,17.9583,-102.2,28.22,79,100,0.66,MX,1691636800
423,mejit,10.2753,170.8646,27.99,70,84,4.95,MH,1691636801
424,kosh-agach,50.0,88.6667,15.45,59,14,0.64,RU,1691636801
425,visakhapatnam,17.69,83.2093,30.97,59,85,1.12,IN,1691636801
426,nova vicosa,-17.8919,-39.3719,21.79,74,8,2.72,BR,1691636518
427,manaure,11.7751,-72.4445,28.3,79,11,1.53,CO,1691636711
428,prince rupert,54.3161,-130.3201,14.52,92,100,1.55,CA,1691636802
429,massakory,12.996,15.7293,23.05,90,100,1.86,TD,1691636802
430,namtsy,62.7161,129.6658,23.16,35,96,4.63,RU,1691636802
431,la foa,-21.7108,165.8276,18.6,62,83,7.66,NC,1691636802
432,luocheng,29.3848,104.0286,29.3,82,63,1.4,CN,1691636803
433,ginir,7.1333,40.7,13.96,83,85,2.32,ET,1691636553
434,eyl,7.9803,49.8164,25.15,69,76,9.53,SO,1691636803
435,ciudad rodrigo,40.6,-6.5333,15.99,70,1,0.44,ES,1691636803
436,kiama,-34.6833,150.8667,21.81,44,71,8.94,AU,1691636804
437,infantes,38.7367,-3.0122,27.23,39,7,2.54,ES,1691636804
438,krasnoturansk,54.3186,91.5639,21.03,51,17,3.01,RU,1691636804
439,andalgala,-27.5819,-66.3165,15.16,32,77,1.26,AR,1691636804
440,gbongan,7.4667,4.35,21.37,99,100,1.39,NG,1691636805
441,holualoa,19.6228,-155.9522,27.91,67,75,4.63,US,1691636805
442,pionerskiy,54.9508,20.2275,10.91,74,96,5.97,RU,1691636805
443,tommot,58.9564,126.2925,26.87,50,21,1.07,RU,1691636771
444,chesapeake beach,38.6862,-76.5347,26.2,86,80,3.25,US,1691636805
445,iranshahr,27.2025,60.6848,33.87,27,43,1.71,IR,1691636806
446,tchintabaraden,15.8969,5.7985,28.28,61,26,5.23,NE,1691636806
447,lundazi,-12.2929,33.1782,13.26,67,0,4.69,ZM,1691636806
448,el granada,37.5027,-122.4694,22.12,84,100,9.26,US,1691636785
449,padang,-0.9492,100.3543,29.03,81,62,2.13,ID,1691636806
450,bardai,11.65,7.2333,20.81,95,99,3.91,NG,1691636807
451,san francisco de la paz,14.9,-86.2,22.11,83,74,1.12,HN,1691636807
452,inyonga,-6.7167,32.0667,15.9,59,2,2.28,TZ,1691636807
453,quchan,37.106,58.5095,22.66,34,0,3.14,IR,1691636807
454,trincomalee,8.5711,81.2335,28.98,66,100,7.04,LK,1691636808
455,changde,29.0464,111.6783,31.28,62,7,3.61,CN,1691636808
456,bernalillo,35.05,-106.6673,27.31,40,75,6.69,US,1691636606
457,klaksvik,62.2266,-6.589,8.51,77,40,2.46,FO,1691636808
458,akureyri,65.6835,-18.0878,7.96,76,75,1.03,IS,1691636722
459,kapuskasing,49.4169,-82.4331,18.05,82,75,7.2,CA,1691636756
460,chany,55.3121,76.7647,15.42,81,100,4.34,RU,1691636809
461,normal,40.5142,-88.9906,20.02,97,100,2.68,US,1691636809
462,moscow,55.7522,37.6156,15.75,71,57,2.86,RU,1691636174
463,winnemucca,40.973,-117.7357,27.03,14,0,3.6,US,1691636809
464,noumea,-22.2763,166.4572,20.99,60,42,8.8,NC,1691636404
465,sale,34.0389,-6.8166,23.69,100,75,1.54,MA,1691636810
466,klyuchi,52.2667,79.1667,23.52,39,87,2.56,RU,1691636810
467,princeville,45.7668,-61.2985,19.39,97,100,4.12,CA,1691636583
468,kununurra,-15.7667,128.7333,29.99,26,49,4.12,AU,1691636561
469,gladstone,-23.85,151.25,22.96,46,75,5.66,AU,1691636811
470,kill devil hills,36.0307,-75.676,26.66,80,0,1.54,US,1691636543
471,pacasmayo,-7.4006,-79.5714,20.35,84,43,5.76,PE,1691636811
472,selkirk,50.1436,-96.8845,16.15,85,35,3.53,CA,1691636811
473,stockach,47.85,9.0167,14.52,95,29,0.71,DE,1691636811
474,ono,34.85,134.9333,33.5,46,8,9.22,JP,1691636811
475,moires,35.0532,24.8744,24.42,56,0,1.79,GR,1691636812
476,corleone,37.8134,13.3017,19.58,65,5,1.99,IT,1691636812
477,mhamid,29.82,-5.72,33.07,15,42,1.75,MA,1691636812
478,namibe,-15.1961,12.1522,15.66,90,16,3.66,AO,1691636813
479,dalhart,36.0595,-102.5133,24.01,50,0,4.12,US,1691636813
480,lazaro cardenas,17.9583,-102.2,28.22,79,100,0.66,MX,1691636800
481,zakamensk,50.3741,103.2863,16.25,97,100,1.41,RU,1691636813
482,zag,46.9441,99.165,19.23,46,22,1.41,MN,1691636813
483,santander,43.4647,-3.8044,21.92,79,100,2.57,ES,1691636815
484,sola,-13.8833,167.55,22.83,83,100,11.01,VU,1691636815
485,hefei,31.8639,117.2808,31.14,59,80,2.35,CN,1691636815
486,guerrero negro,27.9769,-114.0611,21.9,85,2,7.35,MX,1691636725
487,as sulayyil,20.4607,45.5779,29.14,13,2,0.94,SA,1691636546
488,chaman,30.9236,66.4512,29.64,12,0,2.64,PK,1691636816
489,teplyk,48.6657,29.745,13.95,71,69,1.61,UA,1691636816
490,labuan,5.2767,115.2417,27.97,73,50,2.56,MY,1691636816
491,dogondoutchi,13.6393,4.0287,26.46,76,51,4.88,NE,1691636816
492,sarankhola,22.3082,89.7897,26.61,91,100,2.4,BD,1691636719
493,alta,69.9689,23.2717,17.59,77,100,1.54,NO,1691636817
494,tobruk,32.0836,23.9764,25.58,69,0,3.8,LY,1691636760
495,huai'an,33.5886,119.0192,30.36,61,1,3.46,CN,1691636817
496,afif,23.9065,42.9172,27.08,19,70,1.52,SA,1691636817
497,kayangel,8.0823,134.7173,27.48,80,71,7.41,PW,1691636818
498,urangan,-25.3,152.9,19.6,51,2,1.82,AU,1691636628
499,watertown,42.3709,-71.1828,24.08,74,0,3.09,US,1691636653
500,xining,36.6167,101.7667,21.62,64,68,1.47,CN,1691636566
501,arvika,59.6553,12.5852,12.34,98,100,1.6,SE,1691636818
502,neryungri,56.6709,124.6491,24.56,39,9,6.04,RU,1691636819
503,kristiansund,63.1115,7.732,10.36,93,75,1.54,NO,1691636819
504,qui nhon,13.7667,109.2333,33.98,52,36,3.09,VN,1691636819
505,kerikeri,-35.2268,173.9474,14.39,81,22,0.89,NZ,1691636537
506,tsiombe,-25.3,45.4833,18.04,91,20,3.45,MG,1691636819
507,boa vista,2.8197,-60.6733,25.99,83,20,1.54,BR,1691636663
508,muisne,0.6,-80.0333,25.52,85,100,3.87,EC,1691636799
509,jamaame,0.0697,42.745,22.6,88,83,3.21,SO,1691636820
510,yicheng,31.3705,119.8703,30.22,67,79,3.05,CN,1691636820
511,ilha de mocambique,-15.0342,40.7358,22.67,76,13,6.38,MZ,1691636821
512,lewiston orchards,46.3804,-116.9754,26.95,39,75,0.0,US,1691636821
513,louga,58.7372,29.8453,11.72,74,0,1.66,RU,1691636821
514,greymouth,-42.4667,171.2,8.89,47,0,1.51,NZ,1691636821
515,tazoult-lambese,35.4817,6.2607,18.92,50,0,0.75,DZ,1691636822
516,hastings,50.8552,0.5729,15.29,50,0,2.2,GB,1691636822
517,zavitinsk,50.1167,129.45,21.18,59,96,3.35,RU,1691636822
518,christchurch,-43.5333,172.6333,7.49,69,100,7.2,NZ,1691636822
519,umm kaddadah,13.6017,26.6876,26.71,66,34,4.17,SD,1691636823
520,jizan,17.3333,42.6667,31.06,59,20,3.68,SA,1691636823
521,eureka,40.8021,-124.1637,19.55,85,48,1.99,US,1691636823
522,timimoun,29.2639,0.231,32.54,15,31,1.2,DZ,1691636823
523,phek,25.6667,94.5,17.64,100,98,0.18,IN,1691636824
524,aykhal,66.0,111.5,19.96,62,86,8.08,RU,1691636824
525,magadan,59.5667,150.8,21.41,55,6,2.96,RU,1691636628
526,bangor,54.6534,-5.669,19.16,91,100,3.6,GB,1691636824
527,aberdeen,57.1437,-2.0981,10.92,100,49,1.03,GB,1691636602
528,cooma,-36.2333,149.1333,8.54,67,70,5.56,AU,1691636825
529,maintirano,-18.0667,44.0167,20.11,89,2,2.87,MG,1691636825
530,kudahuvadhoo,2.6708,72.8944,26.85,79,100,3.7,MV,1691636783
531,suntar,62.1444,117.6319,27.83,42,26,3.59,RU,1691636826
532,yanam,16.7333,82.2167,32.07,56,83,2.7,IN,1691636826
533,darwin,-12.4611,130.8418,30.5,33,0,7.15,AU,1691636403
534,lanett,32.8687,-85.1905,25.92,89,100,0.92,US,1691636826
535,tionk essil,12.7856,-16.5217,25.69,81,96,2.18,SN,1691636827
536,tono,39.3167,141.5333,31.46,58,43,4.17,JP,1691636827
537,puerto carreno,6.189,-67.4859,24.02,95,100,2.82,CO,1691636827
538,vilyuysk,63.7553,121.6247,24.79,34,0,4.6,RU,1691636783
539,tuburan,6.6439,122.2736,29.9,67,96,3.15,PH,1691636828
540,lagunillas,10.1301,-71.2595,26.62,84,93,2.57,VE,1691636828
541,phu khiao,16.3765,102.1285,28.19,72,97,2.64,TH,1691636828
542,ibarreta,-25.2144,-59.8585,16.47,97,96,2.34,AR,1691636828
543,ciudad bolivar,8.1222,-63.5497,25.01,84,100,2.18,VE,1691636829
544,kaduna,10.5222,7.4383,20.62,98,65,2.78,NG,1691636573
545,santyoku,37.4406,129.1708,25.79,95,100,13.36,KR,1691636818
546,merowe,18.4833,31.8167,30.58,50,37,2.41,SD,1691636829
547,guardo,42.7897,-4.8482,15.12,36,1,0.98,ES,1691636829
548,rawson,-43.3002,-65.1023,15.6,39,92,7.25,AR,1691636830
549,sargatskoye,55.6101,73.4972,13.79,89,100,4.05,RU,1691636830
550,contamana,-7.3333,-75.0167,23.33,85,10,0.88,PE,1691636830
551,carlos chagas,-17.7031,-40.7664,18.43,93,0,1.06,BR,1691636780
552,merizo village,13.2658,144.6691,29.43,86,100,8.93,GU,1691636831
553,rabaul,-4.1967,152.1721,28.82,68,90,9.09,PG,1691636831
554,beledweyne,4.7358,45.2036,22.54,80,34,6.13,SO,1691636831
555,huambo,-12.7761,15.7392,13.62,41,7,1.51,AO,1691636831
556,fort mcmurray,56.7268,-111.381,13.77,94,100,4.12,CA,1691636787
557,kone,-21.0595,164.8658,20.07,53,85,6.85,NC,1691636792
558,citeureup,-6.4856,106.8819,29.4,60,28,1.53,ID,1691636832
559,kirensk,57.7853,108.1119,17.61,96,100,1.78,RU,1691636832
560,miracema do tocantins,-9.5618,-48.3967,28.84,34,80,1.09,BR,1691636722
561,moranbah,-22.0016,148.0466,22.97,38,0,4.68,AU,1691636832
562,minas de marcona,-15.2119,-75.1103,12.61,88,27,4.72,PE,1691636761
563,mugia,43.1041,-9.2179,21.06,91,78,7.17,ES,1691636542
564,nuku'alofa,-21.1333,-175.2,22.55,85,100,3.84,TO,1691636833
565,yeppoon,-23.1333,150.7333,22.88,59,12,4.9,AU,1691636771
566,prado,-17.3411,-39.2208,21.45,75,3,2.81,BR,1691636834
567,cururupu,-1.8283,-44.8683,23.46,93,42,1.7,BR,1691636566
568,gadzhiyevo,69.2551,33.3362,17.89,77,0,3.53,RU,1691636834
569,borogontsy,62.6683,131.1683,23.53,32,74,3.91,RU,1691636834
570,corinto,37.9407,22.9573,22.16,62,0,0.57,GR,1691636834
571,i-n-salah,27.1935,2.4607,31.94,15,0,4.41,DZ,1691636758
572,deulgaon raja,20.0167,76.0333,24.81,76,34,5.98,IN,1691636835
573,braintree,51.8782,0.5529,15.91,88,0,2.66,GB,1691636835
574,quepos,9.4236,-84.1652,26.85,86,100,0.64,CR,1691636835
